X,Y,OBJECTID,PRJ_NUMBER,FILE_NUMBR,NAME,ADDRESS,CITY,ZIPCODE,COUNTY,TYPE,OPERATING,OP_CLASS,LOTS,APPDATE,PRISTATUS,SECSTATUS,ONUMBER,OROUTE,FSOURCE,DATASOURCE,NOTES,LAT_DD,LONG_DD,MGRS,GOOGLEMAP,GCID,DESCRIPT,FLAG,UPDATE_DAY,FGDLAQDATE
-82.63852978,27.81894084,2001,PRMZ001687,9318,TREASURE VILLAGE TRAILER PARK,5151 4TH ST N,ST PETERSBURG,33703,PINELLAS,MOBILE HOME PARK,PRIVATE,PRIVATE,150,8/16/1985,APPROVED, ,DE00012620, ,GEOPLAN,DBPR,"BUSINESS ANALYST 2018, LOCATOR: POINTADDRESS, SCORE: 100, [5151 4TH ST N, ST PETERSBURG, FLORIDA, 33703]",27.81894084,-82.63852978,17RLL3861578223,https://www.google.com/maps/place/17RLL3861578223,2001,TREASURE VILLAGE TRAILER PARK,NV,2019-04-14T00:00:00.000Z,2019-04-16T00:00:00.000Z
-82.18980163,28.24112046,2002,PRMZ001342,9017,TREE LANE VILLAGE,5729 DAYTON ST,ZEPHYRHILLS,33542,PASCO,MOBILE HOME PARK,PRIVATE,PRIVATE,185,6/13/1986,APPROVED, ,DE00019068,C/O TEMPLE TERRACE VILLAGE,GEOPLAN,DBPR,"BUSINESS ANALYST 2018, LOCATOR: POINTADDRESS, SCORE: 100, [5729 DAYTON ST, ZEPHYRHILLS, FLORIDA, 33542]",28.24112046,-82.18980163,17RLM8327224487,https://www.google.com/maps/place/17RLM8327224487,2002,TREE LANE VILLAGE,NV,2019-04-14T00:00:00.000Z,2019-04-16T00:00:00.000Z
-80.19804087,25.85020869,2003,PRMZ001363,9034,TRINIDAD COURT,8202 NW MIAMI CT,MIAMI,33150,DADE,MOBILE HOME PARK,PRIVATE,PRIVATE,173,9/26/1985,APPROVED,DELINQUENT,DE00012328,C/O BENJAMIN FRAME,GEOPLAN,DBPR,"BUSINESS ANALYST 2018, LOCATOR: POINTADDRESS, SCORE: 100, [8202 NW MIAMI CT, MIAMI, FLORIDA, 33150]",25.85020869,-80.19804087,17RNJ8036159341,https://www.google.com/maps/place/17RNJ8036159341,2003,TRINIDAD COURT,NV,2019-04-14T00:00:00.000Z,2019-04-16T00:00:00.000Z
-82.45884178,27.71901031,2004,PRMY002066,7256,TRIPLE R MHP LLC,128 21ST ST NW,RUSKIN,33570,HILLSBOROUGH,MOBILE HOME PARK,PRIVATE,PRIVATE,10,10/29/1984,APPROVED, ,DE43591, ,GEOPLAN,DBPR,"BUSINESS ANALYST 2018, LOCATOR: POINTADDRESS, SCORE: 100, [128 21ST ST NW, RUSKIN, FLORIDA, 33570]",27.71901031,-82.45884178,17RLL5618466928,https://www.google.com/maps/place/17RLL5618466928,2004,TRIPLE R MHP LLC,NV,2019-04-14T00:00:00.000Z,2019-04-16T00:00:00.000Z
-82.69911822,28.32137394,2005,PRMZ001230,8915,TROPIC BREEZE,11310 US 19,PORT RICHEY,34668,PASCO,MOBILE HOME PARK,PRIVATE,PRIVATE,75,12/24/1985,APPROVED, ,DE43413, ,GEOPLAN,DBPR,"BUSINESS ANALYST 2018, LOCATOR: STREETADDRESS, SCORE: 100, [11310 US-19 N, PORT RICHEY, FLORIDA, 34668]",28.32137394,-82.69911822,17RLM3342333975,https://www.google.com/maps/place/17RLM3342333975,2005,TROPIC BREEZE,NV,2019-04-14T00:00:00.000Z,2019-04-16T00:00:00.000Z
-82.6008766,27.52138889,2006,PRMZ001463,9118,TROPIC ISLES CO-OP INC,3100 TENTH ST W,PALMETTO,34221,MANATEE,MOBILE HOME PARK,PRIVATE,PRIVATE,91,1/24/1986,APPROVED, ,DE00023280, ,GEOPLAN,DBPR,"BUSINESS ANALYST 2018, LOCATOR: STREETADDRESS, SCORE: 100, [3100 10TH ST W, PALMETTO, FLORIDA, 34221]",27.52138889,-82.6008766,17RLL4189645207,https://www.google.com/maps/place/17RLL4189645207,2006,TROPIC ISLES CO-OP INC,NV,2019-04-14T00:00:00.000Z,2019-04-16T00:00:00.000Z
-81.73589035,24.572511,2007,PRMY002408,7372,TROPIC PALMS MOBILE HOME PARK,6125 2ND ST,KEY WEST,33040,MONROE,MOBILE HOME PARK,PRIVATE,PRIVATE,25,12/11/1984,APPROVED,DELINQUENT,DE46355, ,GEOPLAN,DBPR,"BUSINESS ANALYST 2018, LOCATOR: POINTADDRESS, SCORE: 100, [6125 2ND ST, KEY WEST, FLORIDA, 33040]",24.572511,-81.73589035,17RMH2548517813,https://www.google.com/maps/place/17RMH2548517813,2007,TROPIC PALMS MOBILE HOME PARK,NV,2019-04-14T00:00:00.000Z,2019-04-16T00:00:00.000Z
-82.19352085,28.20379308,2008,PRMZ000517,8297,TROPICAL ACRE EST,3221 PARADISE WAY,ZEPHYRHILLS,33541,PASCO,MOBILE HOME PARK,PRIVATE,PRIVATE,367,1/7/1986,APPROVED, ,DE00000980, ,GEOPLAN,DBPR,"BUSINESS ANALYST 2018, LOCATOR: POINTADDRESS, SCORE: 100, [3221 PARADISE WAY, ZEPHYRHILLS, FLORIDA, 33541]",28.20379308,-82.19352085,17RLM8286720355,https://www.google.com/maps/place/17RLM8286720355,2008,TROPICAL ACRE EST,NV,2019-04-14T00:00:00.000Z,2019-04-16T00:00:00.000Z
-80.2364895,27.22921691,2009,PRMZ001173,8865,TROPICAL ACRES,1901 NE SAVANNAH RD,JENSEN BEACH,34957,MARTIN,MOBILE HOME PARK,PRIVATE,PRIVATE,31,4/1/1985,APPROVED, ,DE00017311, ,GEOPLAN,DBPR,"BUSINESS ANALYST 2018, LOCATOR: POINTADDRESS, SCORE: 100, [1901 NE SAVANNAH RD, JENSEN BEACH, FLORIDA, 34957]",27.22921691,-80.2364895,17RNL7559912054,https://www.google.com/maps/place/17RNL7559912054,2009,TROPICAL ACRES,NV,2019-04-14T00:00:00.000Z,2019-04-16T00:00:00.000Z
-82.68833071,27.82472771,2010,PRMZ002977,9654,TROPICAL GARDENS MHP,4061-58 AVENUE NORTH,ST PETERSBURG,33714,PINELLAS,MOBILE HOME PARK,PRIVATE,PRIVATE,65,9/30/1985,APPROVED, ,DE00017706, ,GEOPLAN,DBPR,"BUSINESS ANALYST 2018, LOCATOR: POINTADDRESS, SCORE: 100, [4061 58TH AVE N, ST PETERSBURG, FLORIDA, 33714]",27.82472771,-82.68833071,17RLL3371878931,https://www.google.com/maps/place/17RLL3371878931,2010,TROPICAL GARDENS MHP,NV,2019-04-14T00:00:00.000Z,2019-04-16T00:00:00.000Z
-81.351437,27.31859194,2011,PRMZ000790,8531,TROPICAL HARBOR ESTATES,690 RICKERT DR,LAKE PLACID,33852,HIGHLANDS,MOBILE HOME PARK,PRIVATE,PRIVATE,449,1/24/1986,APPROVED, ,DE00010967,"ATTN: RICKERT PROPERTIES, INC",GEOPLAN,DBPR,"BUSINESS ANALYST 2018, LOCATOR: STREETNAME, SCORE: 100, [RICKERT DR, LAKE PLACID, FLORIDA, 33852]",27.31859194,-81.351437,17RML6523121772,https://www.google.com/maps/place/17RML6523121772,2011,TROPICAL HARBOR ESTATES,NV,2019-04-14T00:00:00.000Z,2019-04-16T00:00:00.000Z
-80.63027514,28.09070589,2012,PRMZ001824,9435,TROPICAL HAVEN,1205 S EDDIE ALLEN RD,MELBOURNE,32901,BREVARD,MOBILE HOME PARK,PRIVATE,QUASI-PUBLIC,759,3/11/1986,APPROVED, ,DE00012795, ,GEOPLAN,DBPR,"BUSINESS ANALYST 2018, LOCATOR: STREETADDRESS, SCORE: 92.43, [1205 EDDIE ALLEN RD, MELBOURNE, FLORIDA, 32901]",28.0907059,-80.63027514,17RNM3632207306,https://www.google.com/maps/place/17RNM3632207306,2012,TROPICAL HAVEN,NV,2019-04-14T00:00:00.000Z,2019-04-16T00:00:00.000Z
-80.32115564,27.36641431,2013,PRMZ001142,8842,TROPICAL ISLES MHP,281 TROPICAL ISLES CIR,FORT PIERCE,34982,ST LUCIE,MOBILE HOME PARK,PRIVATE,PRIVATE,159,6/5/1987,APPROVED, ,DE43091, ,GEOPLAN,DBPR,"BUSINESS ANALYST 2018, LOCATOR: STREETADDRESS, SCORE: 100, [281 TROPICAL ISLES CIR, FORT PIERCE, FLORIDA, 34982]",27.36641431,-80.32115564,17RNL6713327203,https://www.google.com/maps/place/17RNL6713327203,2013,TROPICAL ISLES MHP,NV,2019-04-14T00:00:00.000Z,2019-04-16T00:00:00.000Z
-80.90798145,26.75320478,2014,PRMZ001706,9334,TROPICAL MH VILLAGE,1550 E US HWY 27,CLEWISTON,33440,HENDRY,MOBILE HOME PARK,PRIVATE,PRIVATE,272,6/24/1986,APPROVED, ,DE00012641, ,GEOPLAN,DBPR,"BUSINESS ANALYST 2018, LOCATOR: POINTADDRESS, SCORE: 96.67, [1550 US-27 S, CLEWISTON, FLORIDA, 33440]",26.75320478,-80.90798145,17RNK0914959104,https://www.google.com/maps/place/17RNK0914959104,2014,TROPICAL MH VILLAGE,NV,2019-04-14T00:00:00.000Z,2019-04-16T00:00:00.000Z
-80.22063008,25.84659321,2015,PRMZ000857,8590,TROPICAL MOBILE HOME PARK,1398 NW 79TH ST,MIAMI,33150,DADE,MOBILE HOME PARK,PRIVATE,PRIVATE,138,2/9/1987,APPROVED,DELINQUENT,DE00011836,C/O CONSOLIDATED COMPANIES GROUP CO,GEOPLAN,DBPR,"BUSINESS ANALYST 2018, LOCATOR: POINTADDRESS, SCORE: 92.08, [1398 NW 79TH ST, MIAMI, FLORIDA, 33147]",25.84659321,-80.22063008,17RNJ7810058927,https://www.google.com/maps/place/17RNJ7810058927,2015,TROPICAL MOBILE HOME PARK,NV,2019-04-14T00:00:00.000Z,2019-04-16T00:00:00.000Z
-81.93314528,26.77325662,2016,PRMZ000885,8614,TROPICAL PALMS,17100 TAMIAMI TR,PUNTA GORDA,33955,CHARLOTTE,MOBILE HOME PARK,PRIVATE,PRIVATE,297,5/7/1987,APPROVED, ,DE42848,ATTN: DIVERSIFIED INVESTMENT SVCS LLC,GEOPLAN,DBPR,"BUSINESS ANALYST 2018, LOCATOR: POINTADDRESS, SCORE: 100, [17100 TAMIAMI TRL, PUNTA GORDA, FLORIDA, 33955]",26.77325662,-81.93314528,17RMK0723061662,https://www.google.com/maps/place/17RMK0723061662,2016,TROPICAL PALMS,NV,2019-04-14T00:00:00.000Z,2019-04-16T00:00:00.000Z
-80.71545142,28.41991447,2017,PRMZ000858,8591,TROPICAL TRAIL VILLAGE,3535 N TROPICAL TR,MERRITT ISLAND,32953,BREVARD,MOBILE HOME PARK,PRIVATE,PRIVATE,62,9/19/1985,APPROVED, ,DE45195, ,GEOPLAN,DBPR,"BUSINESS ANALYST 2018, LOCATOR: STREETADDRESS, SCORE: 100, [3535 N TROPICAL TRL, MERRITT ISLAND, FLORIDA, 32953]",28.41991447,-80.71545142,17RNM2786843753,https://www.google.com/maps/place/17RNM2786843753,2017,TROPICAL TRAIL VILLAGE,NV,2019-04-14T00:00:00.000Z,2019-04-16T00:00:00.000Z
-81.8757509,26.62492847,2018,PRMZ002820,9609,TROPICAL TRAILER PARK,1825 LINHART AVE,FORT MYERS,33901,LEE,MOBILE HOME PARK,PRIVATE,PRIVATE,90,7/3/1990,APPROVED, ,DE00022987, ,GEOPLAN,DBPR,"BUSINESS ANALYST 2018, LOCATOR: POINTADDRESS, SCORE: 100, [1825 LINHART AVE, FORT MYERS, FLORIDA, 33901]",26.62492847,-81.8757509,17RMK1282445192,https://www.google.com/maps/place/17RMK1282445192,2018,TROPICAL TRAILER PARK,NV,2019-04-14T00:00:00.000Z,2019-04-16T00:00:00.000Z
-80.05428977,26.58740877,2019,PRMZ001471,9124,TROPICAL TRAILER PARK,420 N 4TH ST,LANTANA,33462,PALM BEACH,MOBILE HOME PARK,PRIVATE,PRIVATE,50,1/6/1987,APPROVED, ,DE40266,C/O ASSET RECOVERY GROUP,GEOPLAN,DBPR,"BUSINESS ANALYST 2018, LOCATOR: POINTADDRESS, SCORE: 100, [420 N 4TH ST, LANTANA, FLORIDA, 33462]",26.58740877,-80.05428977,17RNK9417141086,https://www.google.com/maps/place/17RNK9417141086,2019,TROPICAL TRAILER PARK,NV,2019-04-14T00:00:00.000Z,2019-04-16T00:00:00.000Z
-81.78132052,26.33744141,2020,PRMY002871,7562,TROPICAL TRAILER PARK,27500 OREGON STREET,BONITA SPRINGS,34135,LEE,MOBILE HOME PARK,PRIVATE,PRIVATE,14,7/16/1987,APPROVED, ,DE44247, ,GEOPLAN,DBPR,"BUSINESS ANALYST 2018, LOCATOR: POINTADDRESS, SCORE: 100, [27500 OREGON ST, BONITA SPRINGS, FLORIDA, 34135]",26.33744142,-81.78132053,17RMK2203113290,https://www.google.com/maps/place/17RMK2203113290,2020,TROPICAL TRAILER PARK,NV,2019-04-14T00:00:00.000Z,2019-04-16T00:00:00.000Z
-81.96671213,26.50059142,2021,PRMZ000675,8432,TROPICANA CO-OP INC,16711 MCGREGOR BLVD,FORT MYERS,33908,LEE,MOBILE HOME PARK,PRIVATE,PRIVATE,333,12/24/1985,APPROVED, ,DE44095, ,GEOPLAN,DBPR,"BUSINESS ANALYST 2018, LOCATOR: STREETADDRESS, SCORE: 100, [16711 MCGREGOR BLVD, FORT MYERS, FLORIDA, 33908]",26.50059142,-81.96671213,17RMK0366531486,https://www.google.com/maps/place/17RMK0366531486,2021,TROPICANA CO-OP INC,NV,2019-04-14T00:00:00.000Z,2019-04-16T00:00:00.000Z
-82.5754489,27.44125362,2022,PRMZ001464,9119,TRY MOR MOBILE HOME PARK,5624 14TH ST W,BRADENTON,34207,MANATEE,MOBILE HOME PARK,PRIVATE,PRIVATE,66,9/30/1985,APPROVED, ,DE42623,"MICHAEL P HICKMAN, MGR",GEOPLAN,DBPR,"BUSINESS ANALYST 2018, LOCATOR: STREETADDRESS, SCORE: 100, [5624 14TH ST W, BRADENTON, FLORIDA, 34207]",27.44125362,-82.5754489,17RLL4429536296,https://www.google.com/maps/place/17RLL4429536296,2022,TRY MOR MOBILE HOME PARK,NV,2019-04-14T00:00:00.000Z,2019-04-16T00:00:00.000Z
-82.39815127,27.71582141,2023,PRMY003583,7812,TUCK-A-WAY,301 27TH ST SE,RUSKIN,33570,HILLSBOROUGH,MOBILE HOME PARK,PRIVATE,PRIVATE,12,8/24/2000,APPROVED, ,DE42038, ,GEOPLAN,DBPR,"BUSINESS ANALYST 2018, LOCATOR: POINTADDRESS, SCORE: 100, [301 27TH ST SE, RUSKIN, FLORIDA, 33570]",27.71582141,-82.39815127,17RLL6216366505,https://www.google.com/maps/place/17RLL6216366505,2023,TUCK-A-WAY,NV,2019-04-14T00:00:00.000Z,2019-04-16T00:00:00.000Z
-82.10780217,28.75753866,2024,PRMY003142,7676,TURTLEBACK RV RESORT,190 COUNTY ROAD 488,LAKE PANASOFFKEE,33538,SUMTER,MOBILE HOME PARK,PRIVATE,PRIVATE,13,9/4/1987,APPROVED,DELINQUENT,DE46352, ,GEOPLAN,DBPR,"BUSINESS ANALYST 2018, LOCATOR: STREETADDRESS, SCORE: 100, [190 CR-488, LAKE PANASOFFKEE, FLORIDA, 33538]",28.75753866,-82.10780217,17RLM9184681627,https://www.google.com/maps/place/17RLM9184681627,2024,TURTLEBACK RV RESORT,NV,2019-04-14T00:00:00.000Z,2019-04-16T00:00:00.000Z
-81.26808058,28.69814911,2025,PRMZ001016,8731,TUSKAWILLA TRAILS,1070 CHEYENNE TRAIL,WINTER SPRINGS,32708,SEMINOLE,MOBILE HOME PARK,PRIVATE,PRIVATE,162,3/22/1985,APPROVED, ,DE00019501, ,GEOPLAN,DBPR,"BUSINESS ANALYST 2018, LOCATOR: STREETADDRESS, SCORE: 100, [1070 CHEYENNE TRL, WINTER SPRINGS, FLORIDA, 32708]",28.69814911,-81.26808058,17RMM7381374573,https://www.google.com/maps/place/17RMM7381374573,2025,TUSKAWILLA TRAILS,NV,2019-04-14T00:00:00.000Z,2019-04-16T00:00:00.000Z
-81.73677149,28.80099158,2026,PRMZ001462,9117,TWEEN WATERS MOBILE MANOR,210 S LAKE ST,TAVARES,32778,LAKE,MOBILE HOME PARK,PRIVATE,PRIVATE,42,11/7/1985,APPROVED, ,DE00012414,C/O GREENLEE KURRAS RICE BROWN,GEOPLAN,DBPR,"BUSINESS ANALYST 2018, LOCATOR: POINTADDRESS, SCORE: 90.92, [210 S LAKE AVE, TAVARES, FLORIDA, 32778]",28.80099158,-81.7367715,17RMM2810086160,https://www.google.com/maps/place/17RMM2810086160,2026,TWEEN WATERS MOBILE MANOR,NV,2019-04-14T00:00:00.000Z,2019-04-16T00:00:00.000Z
-82.7908697,27.83988781,2027,PRMZ001349,9023,TWELVE OAKS MHP,10999 74TH AVE N,SEMINOLE,33772,PINELLAS,MOBILE HOME PARK,PRIVATE,PRIVATE,91,10/16/1985,APPROVED, ,DE00012318, ,GEOPLAN,DBPR,"BUSINESS ANALYST 2018, LOCATOR: POINTADDRESS, SCORE: 100, [10999 74TH AVE N, SEMINOLE, FLORIDA, 33772]",27.83988781,-82.7908697,17RLL2364180754,https://www.google.com/maps/place/17RLL2364180754,2027,TWELVE OAKS MHP,NV,2019-04-14T00:00:00.000Z,2019-04-16T00:00:00.000Z
-82.62340349,27.86793405,2028,PRMZ001235,8920,TWIN CITY MHP,10636 GANDY BLVD,ST PETERSBURG,33702,PINELLAS,MOBILE HOME PARK,PRIVATE,PRIVATE,101,9/18/1985,APPROVED,DELINQUENT,DE45445,ATTN: MHC MANAGEMENT SERVICES LLC,GEOPLAN,DBPR,"BUSINESS ANALYST 2018, LOCATOR: POINTADDRESS, SCORE: 92.43, [10636 GANDY BLVD N, ST PETERSBURG, FLORIDA, 33702]",27.86793405,-82.62340349,17RLL4017783631,https://www.google.com/maps/place/17RLL4017783631,2028,TWIN CITY MHP,NV,2019-04-14T00:00:00.000Z,2019-04-16T00:00:00.000Z
-82.78691971,27.83081063,2029,PRMY002751,7507,TWIN LAKE MOBILE HOME PARK,6401 SEMINOLE BLVD,SEMINOLE,33772,PINELLAS,MOBILE HOME PARK,PRIVATE,PRIVATE,24,9/10/1985,APPROVED, ,DE00017607, ,GEOPLAN,DBPR,"BUSINESS ANALYST 2018, LOCATOR: POINTADDRESS, SCORE: 100, [6401 SEMINOLE BLVD, SEMINOLE, FLORIDA, 33772]",27.83081063,-82.78691971,17RLL2401679742,https://www.google.com/maps/place/17RLL2401679742,2029,TWIN LAKE MOBILE HOME PARK,NV,2019-04-14T00:00:00.000Z,2019-04-16T00:00:00.000Z
-82.73780062,27.96045295,2030,PRMZ001689,9319,TWIN LAKES LODGE,2419 GULF TO BAY BLVD,CLEARWATER,33765,PINELLAS,MOBILE HOME PARK,PRIVATE,PRIVATE,214,6/19/1985,APPROVED, ,DE00012676, ,GEOPLAN,DBPR,"BUSINESS ANALYST 2018, LOCATOR: POINTADDRESS, SCORE: 100, [2419 GULF TO BAY BLVD, CLEARWATER, FLORIDA, 33765]",27.96045295,-82.73780062,17RLL2905894037,https://www.google.com/maps/place/17RLL2905894037,2030,TWIN LAKES LODGE,NV,2019-04-14T00:00:00.000Z,2019-04-16T00:00:00.000Z
-80.9153757,26.73844033,2031,PR7543,7564,TWIN LAKES M H ESTATES,STATE ROAD 832,CLEWISTON,33440,HENDRY,MOBILE HOME PARK,PRIVATE,PRIVATE,40,5/17/2004,APPROVED, ,DE36487, ,GEOPLAN,DBPR,"BUSINESS ANALYST 2018, LOCATOR: STREETNAME, SCORE: 100, [STATE ROAD 832, CLEWISTON, FLORIDA, 33440]",26.73844033,-80.9153757,17RNK0841557468,https://www.google.com/maps/place/17RNK0841557468,2031,TWIN LAKES M H ESTATES,NV,2019-04-14T00:00:00.000Z,2019-04-16T00:00:00.000Z
-84.27478195,30.38630096,2032,PRMZ002762,9592,TWIN LAKES MHP,3991 WOODVILLE HWY,TALLAHASSEE,32305,LEON,MOBILE HOME PARK,PRIVATE,PRIVATE,72,2/26/1993,APPROVED, ,DE44875,JOHN R HETTINGER,GEOPLAN,DBPR,"BUSINESS ANALYST 2018, LOCATOR: STREETADDRESS, SCORE: 100, [3991 WOODVILLE HWY, TALLAHASSEE, FLORIDA, 32305]",30.38630096,-84.27478195,16RGU6186664744,https://www.google.com/maps/place/16RGU6186664744,2032,TWIN LAKES MHP,NV,2019-04-14T00:00:00.000Z,2019-04-16T00:00:00.000Z
-80.15783112,26.70310081,2033,PR9819,9870,TWIN LAKES MOBILE HOME PARK,1701 SKEES RD,WEST PALM BEACH,33411,PALM BEACH,MOBILE HOME PARK,PRIVATE,PRIVATE,78,12/9/2015,APPROVED, ,DE00008659, ,GEOPLAN,DBPR,"BUSINESS ANALYST 2018, LOCATOR: POINTADDRESS, SCORE: 100, [1701 SKEES RD, WEST PALM BEACH, FLORIDA, 33411]",26.70310081,-80.15783112,17RNK8377653828,https://www.google.com/maps/place/17RNK8377653828,2033,TWIN LAKES MOBILE HOME PARK,NV,2019-04-14T00:00:00.000Z,2019-04-16T00:00:00.000Z
-82.55489108,27.45882006,2034,PRMZ001241,8926,TWIN OAKS MHP,4530 9TH ST E,BRADENTON,34203,MANATEE,MOBILE HOME PARK,PRIVATE,PRIVATE,50,10/17/1985,APPROVED,DELINQUENT,DE00017666, ,GEOPLAN,DBPR,"BUSINESS ANALYST 2018, LOCATOR: POINTADDRESS, SCORE: 100, [4530 9TH ST E, BRADENTON, FLORIDA, 34203]",27.45882006,-82.55489108,17RLL4635138217,https://www.google.com/maps/place/17RLL4635138217,2034,TWIN OAKS MHP,NV,2019-04-14T00:00:00.000Z,2019-04-16T00:00:00.000Z
-82.11074931,29.18588112,2035,PRMZ001674,9309,TWIN OAKS MHP,17 SE 20TH CT,OCALA,34471,MARION,MOBILE HOME PARK,PRIVATE,PRIVATE,48,8/1/1985,APPROVED, ,DE42533,C/O DEBOLT PROPERTIES,GEOPLAN,DBPR,"BUSINESS ANALYST 2018, LOCATOR: POINTADDRESS, SCORE: 100, [17 SE 20TH CT, OCALA, FLORIDA, 34471]",29.18588112,-82.11074931,17RLN9200429090,https://www.google.com/maps/place/17RLN9200429090,2035,TWIN OAKS MHP,NV,2019-04-14T00:00:00.000Z,2019-04-16T00:00:00.000Z
-82.30622375,28.00114868,2036,PRMY002712,7484,TWIN PALMS COURT,11520 US 92 E BOX D-4,SEFFNER,33584,HILLSBOROUGH,MOBILE HOME PARK,PRIVATE,PRIVATE,3,12/31/1984,APPROVED, ,DE45642, ,GEOPLAN,DBPR,"BUSINESS ANALYST 2018, LOCATOR: STREETADDRESS, SCORE: 92.43, [11520 E US-92, SEFFNER, FLORIDA, 33584]",28.00114868,-82.30622375,17RLL7156498017,https://www.google.com/maps/place/17RLL7156498017,2036,TWIN PALMS COURT,NV,2019-04-14T00:00:00.000Z,2019-04-16T00:00:00.000Z
-82.72923162,27.90290006,2037,PRMZ001231,8916,TWIN PALMS MANUFACTURED HOME COMMUNITY,14300 66TH ST N,CLEARWATER,33764,PINELLAS,MOBILE HOME PARK,PRIVATE,PRIVATE,149,10/2/1985,APPROVED, ,DE45001,ATTN: LAKESHORE MANAGEMENT,GEOPLAN,DBPR,"BUSINESS ANALYST 2018, LOCATOR: POINTADDRESS, SCORE: 100, [14300 66TH ST N, CLEARWATER, FLORIDA, 33764]",27.90290006,-82.72923162,17RLL2981187648,https://www.google.com/maps/place/17RLL2981187648,2037,TWIN PALMS MANUFACTURED HOME COMMUNITY,NV,2019-04-14T00:00:00.000Z,2019-04-16T00:00:00.000Z
-80.68198096,26.70041309,2038,PRMZ002134,9528,TWIN PALMS MHP,1508 NW AVE P,BELLE GLADE,33430,PALM BEACH,MOBILE HOME PARK,PRIVATE,PRIVATE,35,11/12/1987,APPROVED, ,DE00013470,C/O TWIN PALMS MHP,GEOPLAN,DBPR,"BUSINESS ANALYST 2018, LOCATOR: POINTADDRESS, SCORE: 100, [1508 NW AVENUE P, BELLE GLADE, FLORIDA, 33430]",26.70041309,-80.68198096,17RNK3163653293,https://www.google.com/maps/place/17RNK3163653293,2038,TWIN PALMS MHP,NV,2019-04-14T00:00:00.000Z,2019-04-16T00:00:00.000Z
-82.0189612,28.04019177,2039,PRMZ001694,9324,TWIN PALMS MOBILE HOME PARK,301 NORTH GALLOWAY RD,LAKELAND,33815,POLK,MOBILE HOME PARK,PRIVATE,PRIVATE,222,12/17/1985,APPROVED, ,DE00018156, ,GEOPLAN,DBPR,"BUSINESS ANALYST 2018, LOCATOR: POINTADDRESS, SCORE: 100, [301 N GALLOWAY RD, LAKELAND, FLORIDA, 33815]",28.04019177,-82.0189612,17RLM9984702073,https://www.google.com/maps/place/17RLM9984702073,2039,TWIN PALMS MOBILE HOME PARK,NV,2019-04-14T00:00:00.000Z,2019-04-16T00:00:00.000Z
-81.85899169,28.86216695,2040,PRMY001918,7159,TWIN PALMS TRAILER PARK,35301 CROSS ST,FRUITLAND PARK,34731,LAKE,MOBILE HOME PARK,PRIVATE,PRIVATE,23,11/26/1984,APPROVED, ,DE43573,C/O V.M. PROPERTIES LLC,GEOPLAN,DBPR,"BUSINESS ANALYST 2018, LOCATOR: POINTADDRESS, SCORE: 100, [35301 CROSS ST, FRUITLAND PARK, FLORIDA, 34731]",28.86216695,-81.85899169,17RMM1622293018,https://www.google.com/maps/place/17RMM1622293018,2040,TWIN PALMS TRAILER PARK,NV,2019-04-14T00:00:00.000Z,2019-04-16T00:00:00.000Z
-81.88305663,26.670003,2041,PRMZ000983,8701,TWIN PINES VILLAGE MOBILE HOME PARK,1305 RIVER RD,NORTH FORT MYERS,33903,LEE,MOBILE HOME PARK,PRIVATE,PRIVATE,89,8/12/1985,APPROVED, ,DE00020119,"C/O PASTER, RAY, & COHEN, P.A.",GEOPLAN,DBPR,"BUSINESS ANALYST 2018, LOCATOR: STREETADDRESS, SCORE: 100, [1305 RIVER RD, NORTH FORT MYERS, FLORIDA, 33903]",26.67000301,-81.88305663,17RMK1213150190,https://www.google.com/maps/place/17RMK1213150190,2041,TWIN PINES VILLAGE MOBILE HOME PARK,NV,2019-04-14T00:00:00.000Z,2019-04-16T00:00:00.000Z
-81.88306113,26.67037029,2042,PRMZ000337,8141,TWIN PINES VILLAGE MOBILE HOME PARK,1319 RIVER RD,NORTH FORT MYERS,33903,LEE,MOBILE HOME PARK,PRIVATE,PRIVATE,70,9/23/1985,APPROVED, ,DE00020119,"C/O PASTER, RAY, & COHEN, P.A.",GEOPLAN,DBPR,"BUSINESS ANALYST 2018, LOCATOR: POINTADDRESS, SCORE: 100, [1319 RIVER RD, NORTH FORT MYERS, FLORIDA, 33903]",26.6703703,-81.88306113,17RMK1213150231,https://www.google.com/maps/place/17RMK1213150231,2042,TWIN PINES VILLAGE MOBILE HOME PARK,NV,2019-04-14T00:00:00.000Z,2019-04-16T00:00:00.000Z
-80.17111121,27.11038958,2043,PRMZ000920,8646,TWIN RIVERS MOBILE HOME PARK,7770 SE FEDERAL HWY,HOBE SOUND,33455,MARTIN,MOBILE HOME PARK,PRIVATE,PRIVATE,45,10/29/1985,APPROVED, ,DE00011912, ,GEOPLAN,DBPR,"BUSINESS ANALYST 2018, LOCATOR: POINTADDRESS, SCORE: 100, [7770 SE FEDERAL HWY, HOBE SOUND, FLORIDA, 33455]",27.11038958,-80.17111121,17RNK8216098933,https://www.google.com/maps/place/17RNK8216098933,2043,TWIN RIVERS MOBILE HOME PARK,NV,2019-04-14T00:00:00.000Z,2019-04-16T00:00:00.000Z
-82.63740504,27.38173632,2044,PRMZ001354,9027,TWIN SHORES,3740 GULF OF MEXICO DR,LONGBOAT KEY,34228,SARASOTA,MOBILE HOME PARK,PRIVATE,PRIVATE,1,1/30/1986,APPROVED, ,DE00019715, ,GEOPLAN,DBPR,"BUSINESS ANALYST 2018, LOCATOR: POINTADDRESS, SCORE: 100, [3740 GULF OF MEXICO DR, LONGBOAT KEY, FLORIDA, 34228]",27.38173632,-82.63740504,17RLL3808429781,https://www.google.com/maps/place/17RLL3808429781,2044,TWIN SHORES,NV,2019-04-14T00:00:00.000Z,2019-04-16T00:00:00.000Z
-82.52851039,27.49619756,2045,PRMZ001672,9307,TWO RIVERS MHP,2800 MANATEE AVE,BRADENTON,34208,MANATEE,MOBILE HOME PARK,PRIVATE,PRIVATE,124,10/8/1985,APPROVED, ,DE45378,ATTN: CHARLES ELLIS - CAE MANAGEMENT LLC,GEOPLAN,DBPR,"BUSINESS ANALYST 2018, LOCATOR: POINTADDRESS, SCORE: 92.43, [2800 MANATEE AVE E, BRADENTON, FLORIDA, 34208]",27.49619756,-82.52851039,17RLL4900942326,https://www.google.com/maps/place/17RLL4900942326,2045,TWO RIVERS MHP,NV,2019-04-14T00:00:00.000Z,2019-04-16T00:00:00.000Z
-85.6307404,30.19138356,2046,PRMZ003675,9795,TWO SISTERS PROPERTIES LLC,2418 E DOUGLAS RD,PANAMA CITY,32405,BAY,MOBILE HOME PARK,PRIVATE,PRIVATE,52,12/31/2001,APPROVED, ,DE45283,SONIA J JONES,GEOPLAN,DBPR,"BUSINESS ANALYST 2018, LOCATOR: POINTADDRESS, SCORE: 92.43, [2418 DOUGLAS RD, PANAMA CITY, FLORIDA, 32405]",30.19138356,-85.6307404,16RFU3181440785,https://www.google.com/maps/place/16RFU3181440785,2046,TWO SISTERS PROPERTIES LLC,NV,2019-04-14T00:00:00.000Z,2019-04-16T00:00:00.000Z
-82.45942222,28.07180105,2047,PRMZ001508,9159,TYRONE VILLAGE,13618 N FLORIDA AVE,TAMPA,33613,HILLSBOROUGH,MOBILE HOME PARK,PRIVATE,PRIVATE,111,10/22/1985,APPROVED, ,DE39028,C/O LAKESHORE MANAGEMENT,GEOPLAN,DBPR,"BUSINESS ANALYST 2018, LOCATOR: POINTADDRESS, SCORE: 100, [13618 N FLORIDA AVE, TAMPA, FLORIDA, 33613]",28.07180105,-82.45942222,17RLM5659206016,https://www.google.com/maps/place/17RLM5659206016,2047,TYRONE VILLAGE,NV,2019-04-14T00:00:00.000Z,2019-04-16T00:00:00.000Z
-81.4414439,27.81905623,2048,PRMY003662,7838,UNCLE JOES FISH CAMP,4535 WALK-IN-WATER RD,LAKE WALES,33853,POLK,MOBILE HOME PARK,PRIVATE,PRIVATE,22,9/11/2000,APPROVED,DELINQUENT,DE45708, ,GEOPLAN,DBPR,"BUSINESS ANALYST 2018, LOCATOR: POINTADDRESS, SCORE: 91.69, [4535 WALK-IN-WATER RD, LAKE WALES, FLORIDA, 33898]",27.81905623,-81.4414439,17RML5652477237,https://www.google.com/maps/place/17RML5652477237,2048,UNCLE JOES FISH CAMP,NV,2019-04-14T00:00:00.000Z,2019-04-16T00:00:00.000Z
-80.40415129,25.7608558,2049,PRMZ001661,9298,UNIVERSITY LAKES MOBILE HOME PARK,12820 SW 8TH ST,MIAMI,33184,DADE,MOBILE HOME PARK,PRIVATE,PRIVATE,1153,12/17/1985,APPROVED, ,DE00022103, ,GEOPLAN,DBPR,"BUSINESS ANALYST 2018, LOCATOR: STREETADDRESS, SCORE: 100, [12820 SW 8TH ST, MIAMI, FLORIDA, 33184]",25.7608558,-80.40415129,17RNJ5975249336,https://www.google.com/maps/place/17RNJ5975249336,2049,UNIVERSITY LAKES MOBILE HOME PARK,NV,2019-04-14T00:00:00.000Z,2019-04-16T00:00:00.000Z
-80.64355564,26.84498706,2050,PRMY002748,7505,USHERS TRAILER PARK,2815 E MAIN ST,PAHOKEE,33476,PALM BEACH,MOBILE HOME PARK,PRIVATE,PRIVATE,16,10/16/1987,APPROVED, ,DE45899, ,GEOPLAN,DBPR,"BUSINESS ANALYST 2018, LOCATOR: POINTADDRESS, SCORE: 100, [2815 E MAIN ST, PAHOKEE, FLORIDA, 33476]",26.84498706,-80.64355564,17RNK3541369316,https://www.google.com/maps/place/17RNK3541369316,2050,USHERS TRAILER PARK,NV,2019-04-14T00:00:00.000Z,2019-04-16T00:00:00.000Z
-82.74407021,27.81364471,2051,PRMZ001058,8768,VAGABOND MHP,7570 46TH AVE N,ST PETERSBURG,33709,PINELLAS,MOBILE HOME PARK,PRIVATE,PRIVATE,133,4/18/1985,APPROVED, ,DE00020044, ,GEOPLAN,DBPR,"BUSINESS ANALYST 2018, LOCATOR: STREETADDRESS, SCORE: 100, [7570 46TH AVE N, ST PETERSBURG, FLORIDA, 33709]",27.81364471,-82.74407021,17RLL2820977779,https://www.google.com/maps/place/17RLL2820977779,2051,VAGABOND MHP,NV,2019-04-14T00:00:00.000Z,2019-04-16T00:00:00.000Z
-81.90587295,28.0061815,2052,PRMZ001182,8874,VALENCIA EST MOBILE HOME PARK,3325 US HWY 98 S,LAKELAND,33803,POLK,MOBILE HOME PARK,PRIVATE,PRIVATE,86,8/23/1985,APPROVED, ,DE42652,C/O NEWBY MANAGEMENT,GEOPLAN,DBPR,"BUSINESS ANALYST 2018, LOCATOR: POINTADDRESS, SCORE: 100, [3325 US HIGHWAY 98 S, LAKELAND, FLORIDA, 33803]",28.0061815,-81.90587296,17RML1093598218,https://www.google.com/maps/place/17RML1093598218,2052,VALENCIA EST MOBILE HOME PARK,NV,2019-04-14T00:00:00.000Z,2019-04-16T00:00:00.000Z
-81.54395026,28.68764925,2053,PRMZ001175,8867,VALENCIA EST MOBILE HOME PARK,547 DRAGE DR,APOPKA,32703,ORANGE,MOBILE HOME PARK,PRIVATE,PRIVATE,122,6/28/1985,APPROVED, ,DE38271,ATTN: AUDERE VENTURES INC,GEOPLAN,DBPR,"BUSINESS ANALYST 2018, LOCATOR: POINTADDRESS, SCORE: 100, [547 DRAGE DR, APOPKA, FLORIDA, 32703]",28.68764925,-81.54395026,17RMM4686073502,https://www.google.com/maps/place/17RMM4686073502,2053,VALENCIA EST MOBILE HOME PARK,NV,2019-04-14T00:00:00.000Z,2019-04-16T00:00:00.000Z
-81.42911022,27.47850359,2054,PRMZ002785,9598,VALENCIA FAMILY MHP,3801 YOUTH CARE LN,SEBRING,33870,HIGHLANDS,MOBILE HOME PARK,PRIVATE,PRIVATE,70,10/6/1988,APPROVED,DELINQUENT,DE43764, ,GEOPLAN,DBPR,"BUSINESS ANALYST 2018, LOCATOR: POINTADDRESS, SCORE: 100, [3801 YOUTH CARE LN, SEBRING, FLORIDA, 33870]",27.47850359,-81.42911022,17RML5760739509,https://www.google.com/maps/place/17RML5760739509,2054,VALENCIA FAMILY MHP,NV,2019-04-14T00:00:00.000Z,2019-04-16T00:00:00.000Z
-81.78675472,27.74816471,2055,PRMZ001843,9451,VALENCIA MOBILE HOME PARK,226 S WASHINGTON AVE,FORT MEADE,33841,POLK,MOBILE HOME PARK,PRIVATE,PRIVATE,95,9/18/1985,APPROVED, ,DE43325,ATTN: M MICHAEL SAMANIPOUR,GEOPLAN,DBPR,"BUSINESS ANALYST 2018, LOCATOR: STREETADDRESS, SCORE: 100, [226 S WASHINGTON AVE, FORT MEADE, FLORIDA, 33841]",27.74816471,-81.78675472,17RML2246469554,https://www.google.com/maps/place/17RML2246469554,2055,VALENCIA MOBILE HOME PARK,NV,2019-04-14T00:00:00.000Z,2019-04-16T00:00:00.000Z
-81.59328147,28.75816987,2056,PRMZ001413,9079,VALLEY MOBILE HOME PARK,5100 ROUND LAKE RD,APOPKA,32712,ORANGE,MOBILE HOME PARK,PRIVATE,PRIVATE,150,7/25/1985,APPROVED, ,DE43078, ,GEOPLAN,DBPR,"BUSINESS ANALYST 2018, LOCATOR: POINTADDRESS, SCORE: 100, [5100 ROUND LAKE RD, APOPKA, FLORIDA, 32712]",28.75816987,-81.59328147,17RMM4208081338,https://www.google.com/maps/place/17RMM4208081338,2056,VALLEY MOBILE HOME PARK,NV,2019-04-14T00:00:00.000Z,2019-04-16T00:00:00.000Z
-82.19647391,28.25716887,2057,PRMZ000698,8452,VALLEYDALE RO ASSOCIATION INC,37501 MARTINDALE AVE,ZEPHYRHILLS,33542,PASCO,MOBILE HOME PARK,PRIVATE,PRIVATE,1,3/5/1986,APPROVED, ,DE00018744,ATTN OFFICE MANAGER,GEOPLAN,DBPR,"BUSINESS ANALYST 2018, LOCATOR: STREETADDRESS, SCORE: 100, [37501 MARTINDALE AVE, ZEPHYRHILLS, FLORIDA, 33542]",28.25716887,-82.19647391,17RLM8263526271,https://www.google.com/maps/place/17RLM8263526271,2057,VALLEYDALE RO ASSOCIATION INC,NV,2019-04-14T00:00:00.000Z,2019-04-16T00:00:00.000Z
-82.2141863,27.93786709,2058,PR7533,7554,VALRICO HILLS MOBILE HOME PARK,3942 SR 60 E,DOVER,33527,HILLSBOROUGH,MOBILE HOME PARK,PRIVATE,PRIVATE,38,5/24/2004,APPROVED, ,DE38732,"ATTN: YARON M DAVID, MGR",GEOPLAN,DBPR,"BUSINESS ANALYST 2018, LOCATOR: STREETADDRESS, SCORE: 92.43, [3942 SR-60 W, DOVER, FLORIDA, 33527]",27.93786709,-82.2141863,17RLL8054590913,https://www.google.com/maps/place/17RLL8054590913,2058,VALRICO HILLS MOBILE HOME PARK,NV,2019-04-14T00:00:00.000Z,2019-04-16T00:00:00.000Z
-80.78444522,27.22080272,2059,PRMZ003412,9752,VANTAGE OAKS,4351 SE 26TH STREET,OKEECHOBEE,34974,OKEECHOBEE,MOBILE HOME PARK,PRIVATE,PRIVATE,56,11/21/1996,APPROVED, ,DE00018809, ,GEOPLAN,DBPR,"BUSINESS ANALYST 2018, LOCATOR: STREETADDRESS, SCORE: 100, [4351 SE 26TH ST, OKEECHOBEE, FLORIDA, 34974]",27.22080272,-80.78444522,17RNL2134410910,https://www.google.com/maps/place/17RNL2134410910,2059,VANTAGE OAKS,NV,2019-04-14T00:00:00.000Z,2019-04-16T00:00:00.000Z
-82.63748197,27.82197123,2060,PRMZ001046,8757,VENETIAN MH COURT,5475 3RD LANE NORTH,ST PETERSBURG,33703,PINELLAS,MOBILE HOME PARK,PRIVATE,PRIVATE,225,6/14/1985,APPROVED,DELINQUENT,DE00011686,C/O DAVID M. CLARK,GEOPLAN,DBPR,"BUSINESS ANALYST 2018, LOCATOR: POINTADDRESS, SCORE: 100, [5475 3RD LN N, ST PETERSBURG, FLORIDA, 33703]",27.82197123,-82.63748197,17RLL3872278557,https://www.google.com/maps/place/17RLL3872278557,2060,VENETIAN MH COURT,NV,2019-04-14T00:00:00.000Z,2019-04-16T00:00:00.000Z
-82.42860317,27.08823162,2061,PRMZ001450,9109,VENICE ISLE MOBILE ESTATES,603 ROMA RD,VENICE,34285,SARASOTA,MOBILE HOME PARK,PRIVATE,PRIVATE,10,5/31/1985,APPROVED, ,DE00020396, ,GEOPLAN,DBPR,"BUSINESS ANALYST 2018, LOCATOR: POINTADDRESS, SCORE: 100, [603 ROMA RD, VENICE, FLORIDA, 34285]",27.08823162,-82.42860317,17RLK5836397012,https://www.google.com/maps/place/17RLK5836397012,2061,VENICE ISLE MOBILE ESTATES,NV,2019-04-14T00:00:00.000Z,2019-04-16T00:00:00.000Z
-82.44032728,27.08620825,2062,PRMZ001822,9433,VENICE MUNICIPAL MHP,780 TAMIAMI TR S,VENICE,34285,SARASOTA,MOBILE HOME PARK,MUNICIPAL,PUBLIC,189,1/21/1986,APPROVED, ,DE00012787, ,GEOPLAN,DBPR,"BUSINESS ANALYST 2018, LOCATOR: POINTADDRESS, SCORE: 100, [780 TAMIAMI TRL S, VENICE, FLORIDA, 34285]",27.08620825,-82.44032728,17RLK5719896801,https://www.google.com/maps/place/17RLK5719896801,2062,VENICE MUNICIPAL MHP,NV,2019-04-14T00:00:00.000Z,2019-04-16T00:00:00.000Z
-82.39603,27.09864799,2063,PRMZ000910,8638,VENICE RANCH MOBILE HOME ESTATES,2496 SYLVIA LN,VENICE,34292,SARASOTA,MOBILE HOME PARK,PRIVATE,PRIVATE,213,2/28/1985,APPROVED, ,DE44533, ,GEOPLAN,DBPR,"BUSINESS ANALYST 2018, LOCATOR: POINTADDRESS, SCORE: 100, [2496 SYLVIA LN, VENICE, FLORIDA, 34292]",27.09864799,-82.39603,17RLK6160698130,https://www.google.com/maps/place/17RLK6160698130,2063,VENICE RANCH MOBILE HOME ESTATES,NV,2019-04-14T00:00:00.000Z,2019-04-16T00:00:00.000Z
-82.46422771,27.5493354,2064,PRMZ002073,9515,VERANDA SPRINGS,9815 US 301 NORTH,PARRISH,34219,MANATEE,MOBILE HOME PARK,PRIVATE,PRIVATE,350,12/31/1987,APPROVED, ,DE45025, ,GEOPLAN,DBPR,"BUSINESS ANALYST 2018, LOCATOR: POINTADDRESS, SCORE: 100, [9815 US HIGHWAY 301 N, PARRISH, FLORIDA, 34219]",27.54933541,-82.46422771,17RLL5543048136,https://www.google.com/maps/place/17RLL5543048136,2064,VERANDA SPRINGS,NV,2019-04-14T00:00:00.000Z,2019-04-16T00:00:00.000Z
-80.39774109,27.64321798,2065,PRMZ001408,9074,VERO MOBILE HOME PARK,1228 24TH ST,VERO BEACH,32960,INDIAN RIVER,MOBILE HOME PARK,PRIVATE,PRIVATE,47,12/30/1985,APPROVED, ,DE00022711, ,GEOPLAN,DBPR,"BUSINESS ANALYST 2018, LOCATOR: POINTADDRESS, SCORE: 100, [1228 24TH ST, VERO BEACH, FLORIDA, 32960]",27.64321798,-80.39774109,17RNL5941057826,https://www.google.com/maps/place/17RNL5941057826,2065,VERO MOBILE HOME PARK,NV,2019-04-14T00:00:00.000Z,2019-04-16T00:00:00.000Z
-80.49594196,27.63003113,2066,PRMZ000984,8702,VERO PALM ESTATES,1405 82ND AVE,VERO BEACH,32966,INDIAN RIVER,MOBILE HOME PARK,PRIVATE,PRIVATE,285,6/30/1987,APPROVED, ,DE44297, ,GEOPLAN,DBPR,"BUSINESS ANALYST 2018, LOCATOR: POINTADDRESS, SCORE: 100, [1405 82ND AVE, VERO BEACH, FLORIDA, 32966]",27.63003113,-80.49594196,17RNL4972956322,https://www.google.com/maps/place/17RNL4972956322,2066,VERO PALM ESTATES,NV,2019-04-14T00:00:00.000Z,2019-04-16T00:00:00.000Z
-82.11180761,29.28943762,2067,PRMZ000137,7966,VICTORY MOBILE HOME PARK,9588 NE JACKSONVILLE RD,ANTHONY,32617,MARION,MOBILE HOME PARK,PRIVATE,PRIVATE,52,4/7/1987,APPROVED, ,DE43992,C/O BRIAN CARR,GEOPLAN,DBPR,"BUSINESS ANALYST 2018, LOCATOR: POINTADDRESS, SCORE: 100, [9588 NE JACKSONVILLE RD, ANTHONY, FLORIDA, 32617]",29.28943762,-82.11180761,17RLN9201040566,https://www.google.com/maps/place/17RLN9201040566,2067,VICTORY MOBILE HOME PARK,NV,2019-04-14T00:00:00.000Z,2019-04-16T00:00:00.000Z
-81.51749148,27.58782366,2068,PRMZ000046,7883,VILLA DEL SOL,1213 W BOHLAND ST,AVON PARK,33825,HIGHLANDS,MOBILE HOME PARK,PRIVATE,PRIVATE,152,1/31/1986,APPROVED, ,DE00010967,"ATTN: RICKERT PROPERTIES, INC",GEOPLAN,DBPR,"BUSINESS ANALYST 2018, LOCATOR: POINTADDRESS, SCORE: 100, [1213 W BOHLAND ST, AVON PARK, FLORIDA, 33825]",27.58782366,-81.51749148,17RML4892651652,https://www.google.com/maps/place/17RML4892651652,2068,VILLA DEL SOL,NV,2019-04-14T00:00:00.000Z,2019-04-16T00:00:00.000Z
-82.5466799,27.42387036,2069,PRMZ001410,9076,VILLA DEL SOL MOBILE HOME PARK,6515 15TH ST EAST,SARASOTA,34243,MANATEE,MOBILE HOME PARK,PRIVATE,PRIVATE,207,12/31/1985,APPROVED, ,DE00021212, ,GEOPLAN,DBPR,"BUSINESS ANALYST 2018, LOCATOR: POINTADDRESS, SCORE: 100, [6515 15TH ST E, SARASOTA, FLORIDA, 34243]",27.42387036,-82.5466799,17RLL4711534335,https://www.google.com/maps/place/17RLL4711534335,2069,VILLA DEL SOL MOBILE HOME PARK,NV,2019-04-14T00:00:00.000Z,2019-04-16T00:00:00.000Z
-81.70412956,29.63632727,2070,PRMZ000993,8709,VILLA FARMS,7300 CRILL AVE,PALATKA,32177,PUTNAM,MOBILE HOME PARK,PRIVATE,PRIVATE,64,10/8/1985,APPROVED, ,DE00011984, ,GEOPLAN,DBPR,"BUSINESS ANALYST 2018, LOCATOR: POINTADDRESS, SCORE: 100, [7300 CRILL AVE, PALATKA, FLORIDA, 32177]",29.63632727,-81.70412956,17RMN3184178696,https://www.google.com/maps/place/17RMN3184178696,2070,VILLA FARMS,NV,2019-04-14T00:00:00.000Z,2019-04-16T00:00:00.000Z
-80.82848971,27.2861171,2071,PRMZ002826,9611,VILLA MARGARET TRAILER PARK,4648 US HWY 441 N,OKEECHOBEE,34972,OKEECHOBEE,MOBILE HOME PARK,PRIVATE,PRIVATE,43,3/14/1997,APPROVED, ,DE00014908, ,GEOPLAN,DBPR,"BUSINESS ANALYST 2018, LOCATOR: POINTADDRESS, SCORE: 100, [4648 US HIGHWAY 441 N, OKEECHOBEE, FLORIDA, 34972]",27.2861171,-80.82848971,17RNL1697318138,https://www.google.com/maps/place/17RNL1697318138,2071,VILLA MARGARET TRAILER PARK,NV,2019-04-14T00:00:00.000Z,2019-04-16T00:00:00.000Z
-82.46360066,27.72070266,2072,PRMZ001296,8975,VILLA MARIA MHP,2510 W SHELL POINT RD,RUSKIN,33570,HILLSBOROUGH,MOBILE HOME PARK,PRIVATE,PRIVATE,58,4/16/1986,APPROVED, ,DE00015311,C/O SUK CHANG,GEOPLAN,DBPR,"BUSINESS ANALYST 2018, LOCATOR: POINTADDRESS, SCORE: 100, [2510 W SHELL POINT RD, RUSKIN, FLORIDA, 33570]",27.72070266,-82.46360066,17RLL5571767121,https://www.google.com/maps/place/17RLL5571767121,2072,VILLA MARIA MHP,NV,2019-04-14T00:00:00.000Z,2019-04-16T00:00:00.000Z
-82.6766101,27.8210726,2073,PRMZ001418,9084,VILLA PLUMOSA MOBILE HOME PARK,3290 54TH AVE N,ST PETERSBURG,33714,PINELLAS,MOBILE HOME PARK,PRIVATE,PRIVATE,37,4/16/1986,APPROVED, ,DE45850, ,GEOPLAN,DBPR,"BUSINESS ANALYST 2018, LOCATOR: POINTADDRESS, SCORE: 100, [3290 54TH AVE N, ST PETERSBURG, FLORIDA, 33714]",27.8210726,-82.6766101,17RLL3486778510,https://www.google.com/maps/place/17RLL3486778510,2073,VILLA PLUMOSA MOBILE HOME PARK,NV,2019-04-14T00:00:00.000Z,2019-04-16T00:00:00.000Z
-81.79574517,30.12473601,2074,PRMY003356,7708,VILLA TRAILER PARK,1283 BLANDING BLVD,ORANGE PARK,32065,CLAY,MOBILE HOME PARK,PRIVATE,PRIVATE,10,11/1/1984,APPROVED, ,DE00018695, ,GEOPLAN,DBPR,"BUSINESS ANALYST 2018, LOCATOR: POINTADDRESS, SCORE: 100, [1283 BLANDING BLVD, ORANGE PARK, FLORIDA, 32065]",30.12473601,-81.79574517,17RMP2334732874,https://www.google.com/maps/place/17RMP2334732874,2074,VILLA TRAILER PARK,NV,2019-04-14T00:00:00.000Z,2019-04-16T00:00:00.000Z
-82.28042248,27.04292518,2075,PRMZ003023,9664,VILLAGE AT RIVERWALK,150 RIVERWALK DR,NORTH PORT,34287,SARASOTA,MOBILE HOME PARK,PRIVATE,PRIVATE,223,11/14/1988,APPROVED, ,DE44005, ,GEOPLAN,DBPR,"BUSINESS ANALYST 2018, LOCATOR: STREETADDRESS, SCORE: 100, [150 RIVERWALK DR, NORTH PORT, FLORIDA, 34287]",27.04292518,-82.28042248,17RLK7300591835,https://www.google.com/maps/place/17RLK7300591835,2075,VILLAGE AT RIVERWALK,NV,2019-04-14T00:00:00.000Z,2019-04-16T00:00:00.000Z
-80.6962098,28.13598116,2076,PRMZ001401,9067,VILLAGE GLEN MOBILE HOME PARK,1825 MARYWOOD RD,MELBOURNE,32934,BREVARD,MOBILE HOME PARK,PRIVATE,PRIVATE,143,9/20/1985,APPROVED, ,DE35799,C/O LAKESHORE MANAGEMENT,GEOPLAN,DBPR,"BUSINESS ANALYST 2018, LOCATOR: POINTADDRESS, SCORE: 100, [1825 MARYWOOD RD, MELBOURNE, FLORIDA, 32934]",28.13598116,-80.6962098,17RNM2983212303,https://www.google.com/maps/place/17RNM2983212303,2076,VILLAGE GLEN MOBILE HOME PARK,NV,2019-04-14T00:00:00.000Z,2019-04-16T00:00:00.000Z
-80.47654049,27.63927848,2077,PRMZ001409,9075,VILLAGE GREEN EAST MOBILE HOME PARK,7300 20TH ST,VERO BEACH,32966,INDIAN RIVER,MOBILE HOME PARK,PRIVATE,PRIVATE,780,5/28/1986,APPROVED, ,DE44272,C/O BUSINESS LICENSES LLC,GEOPLAN,DBPR,"BUSINESS ANALYST 2018, LOCATOR: POINTADDRESS, SCORE: 100, [7300 20TH ST, VERO BEACH, FLORIDA, 32966]",27.63927848,-80.47654049,17RNL5163957354,https://www.google.com/maps/place/17RNL5163957354,2077,VILLAGE GREEN EAST MOBILE HOME PARK,NV,2019-04-14T00:00:00.000Z,2019-04-16T00:00:00.000Z
-82.65953037,27.84752788,2078,PRMZ000909,8637,VILLAGE GREEN MOBILE HOME PARK,2001 83RD AVE N,ST PETERSBURG,33702,PINELLAS,MOBILE HOME PARK,PRIVATE,PRIVATE,576,2/21/1985,APPROVED, ,DE00016895, ,GEOPLAN,DBPR,"BUSINESS ANALYST 2018, LOCATOR: POINTADDRESS, SCORE: 100, [2001 83RD AVE N, ST PETERSBURG, FLORIDA, 33702]",27.84752788,-82.65953037,17RLL3658981418,https://www.google.com/maps/place/17RLL3658981418,2078,VILLAGE GREEN MOBILE HOME PARK,NV,2019-04-14T00:00:00.000Z,2019-04-16T00:00:00.000Z
-80.6369191,24.91671175,2079,PRMZ001887,9481,VILLAGE MOBILE PARK INC,81648 OVERSEAS HWY,ISLAMORADA,33036,MONROE,MOBILE HOME PARK,PRIVATE,PRIVATE,32,9/14/1987,APPROVED,DELINQUENT,DE44597, ,GEOPLAN,DBPR,"BUSINESS ANALYST 2018, LOCATOR: POINTADDRESS, SCORE: 100, [81648 OVERSEAS HWY, ISLAMORADA, FLORIDA, 33036]",24.91671175,-80.6369191,17RNH3666355774,https://www.google.com/maps/place/17RNH3666355774,2079,VILLAGE MOBILE PARK INC,NV,2019-04-14T00:00:00.000Z,2019-04-16T00:00:00.000Z
-82.44590086,28.08044348,2080,PRMZ001586,9230,VILLAGE OF TAMPA,1201 E SKIPPER RD,TAMPA,33613,HILLSBOROUGH,MOBILE HOME PARK,PRIVATE,PRIVATE,463,6/14/1985,APPROVED, ,DE00016631, ,GEOPLAN,DBPR,"BUSINESS ANALYST 2018, LOCATOR: POINTADDRESS, SCORE: 92.43, [1201 SKIPPER RD, TAMPA, FLORIDA, 33613]",28.08044348,-82.44590086,17RLM5793306957,https://www.google.com/maps/place/17RLM5793306957,2080,VILLAGE OF TAMPA,NV,2019-04-14T00:00:00.000Z,2019-04-16T00:00:00.000Z
-80.20037821,26.19231742,2081,PRMZ001402,9068,VILLAGE PARK,3653 NW 53RD PL,FORT LAUDERDALE,33309,BROWARD,MOBILE HOME PARK,PRIVATE,PRIVATE,307,9/9/1985,APPROVED, ,DE45486,RIVERSTONE COMMUNITIES LLC,GEOPLAN,DBPR,"BUSINESS ANALYST 2018, LOCATOR: STREETADDRESS, SCORE: 100, [3653 NW 53RD PL, FORT LAUDERDALE, FLORIDA, 33309]",26.19231742,-80.20037821,17RNJ7989597228,https://www.google.com/maps/place/17RNJ7989597228,2081,VILLAGE PARK,NV,2019-04-14T00:00:00.000Z,2019-04-16T00:00:00.000Z
-82.63569691,29.12531311,2082,PRMY001935,7169,VILLAGE PINES MOBILE PARK,8053 SE 140TH LN,INGLIS,34449,LEVY,MOBILE HOME PARK,PRIVATE,PRIVATE,25,12/20/1984,APPROVED, ,DE45043, ,GEOPLAN,DBPR,"BUSINESS ANALYST 2018, LOCATOR: STREETADDRESS, SCORE: 100, [8053 SE 140TH LN, INGLIS, FLORIDA, 34449]",29.12531311,-82.63569691,17RLN4086422975,https://www.google.com/maps/place/17RLN4086422975,2082,VILLAGE PINES MOBILE PARK,NV,2019-04-14T00:00:00.000Z,2019-04-16T00:00:00.000Z
-82.12479137,29.26671608,2083,PRMZ000833,8569,VILLAGES OF OCALA EAST,935 NE 77TH ST,OCALA,34479,MARION,MOBILE HOME PARK,PRIVATE,PRIVATE,115,4/23/1986,APPROVED, ,DE00011879,C/O TEMPLE TERRACE VILLAGE,GEOPLAN,DBPR,"BUSINESS ANALYST 2018, LOCATOR: STREETADDRESS, SCORE: 100, [935 NE 77TH ST, OCALA, FLORIDA, 34479]",29.26671608,-82.12479137,17RLN9072438060,https://www.google.com/maps/place/17RLN9072438060,2083,VILLAGES OF OCALA EAST,NV,2019-04-14T00:00:00.000Z,2019-04-16T00:00:00.000Z
-82.13230935,29.26575165,2084,PRMZ000892,8621,VILLAGES OF OCALA WEST,7651 W ANTHONY ROAD,OCALA,34470,MARION,MOBILE HOME PARK,PRIVATE,PRIVATE,76,1/30/1986,APPROVED, ,DE00011878,C/O TEMPLE TERRACE VILLAGE,GEOPLAN,DBPR,"BUSINESS ANALYST 2018, LOCATOR: POINTADDRESS, SCORE: 92.08, [7651 W ANTHONY RD, OCALA, FLORIDA, 34479]",29.26575165,-82.13230935,17RLN8999337961,https://www.google.com/maps/place/17RLN8999337961,2084,VILLAGES OF OCALA WEST,NV,2019-04-14T00:00:00.000Z,2019-04-16T00:00:00.000Z
-82.64095176,28.11714963,2085,PRMZ000999,8715,VILLAS AT SILVER DOLLAR,17000 PATTERSON ROAD,ODESSA,33556,PASCO,MOBILE HOME PARK,PRIVATE,PRIVATE,225,7/30/1985,APPROVED, ,DE00021118,BUSINESS LICENSES LLC,GEOPLAN,DBPR,"BUSINESS ANALYST 2018, LOCATOR: POINTADDRESS, SCORE: 100, [17000 PATTERSON RD, ODESSA, FLORIDA, 33556]",28.11714963,-82.64095176,17RLM3882011268,https://www.google.com/maps/place/17RLM3882011268,2085,VILLAS AT SILVER DOLLAR,NV,2019-04-14T00:00:00.000Z,2019-04-16T00:00:00.000Z
-82.08691181,29.21930047,2086,PRMZ001120,8824,"VILLAS AT SPANISH OAKS, THE",3150 NE 36TH AVE #331,OCALA,34479,MARION,MOBILE HOME PARK,PRIVATE,PRIVATE,459,6/7/1985,APPROVED, ,DE00021454,BUSINESS LICENSES LLC,GEOPLAN,DBPR,"BUSINESS ANALYST 2018, LOCATOR: POINTADDRESS, SCORE: 100, [3150 NE 36TH AVE, OCALA, FLORIDA, 34479]",29.21930047,-82.08691181,17RLN9435632772,https://www.google.com/maps/place/17RLN9435632772,2086,"VILLAS AT SPANISH OAKS, THE",NV,2019-04-14T00:00:00.000Z,2019-04-16T00:00:00.000Z
-81.63297722,28.35647567,2087,PRMZ000908,8636,VISTA DEL LAGO,14465 VISTA DEL LAGO BLVD,WINTER GARDEN,34787,ORANGE,MOBILE HOME PARK,PRIVATE,PRIVATE,925,6/6/1985,APPROVED, ,DE36923,C/O LEARY MANAGEMENT GROUP,GEOPLAN,DBPR,"BUSINESS ANALYST 2018, LOCATOR: POINTADDRESS, SCORE: 100, [14465 VISTA DEL LAGO BLVD, WINTER GARDEN, FLORIDA, 34787]",28.35647567,-81.63297722,17RMM3796936855,https://www.google.com/maps/place/17RMM3796936855,2087,VISTA DEL LAGO,NV,2019-04-14T00:00:00.000Z,2019-04-16T00:00:00.000Z
-82.57023067,27.44777779,2088,PRMZ001466,9121,VISTA DEL LAGO,801 53RD AVE W,BRADENTON,34207,MANATEE,MOBILE HOME PARK,PRIVATE,PRIVATE,136,12/20/1985,APPROVED, ,DE46210, ,GEOPLAN,DBPR,"BUSINESS ANALYST 2018, LOCATOR: POINTADDRESS, SCORE: 100, [801 53RD AVE W, BRADENTON, FLORIDA, 34207]",27.44777779,-82.57023067,17RLL4482037013,https://www.google.com/maps/place/17RLL4482037013,2088,VISTA DEL LAGO,NV,2019-04-14T00:00:00.000Z,2019-04-16T00:00:00.000Z
-82.20964251,26.97355242,2089,PRMZ003548,9786,VIZCAYA LAKES,4052 HOLLIS AVENUE,PORT CHARLOTTE,33953,CHARLOTTE,MOBILE HOME PARK,PRIVATE,PRIVATE,114,10/7/1999,APPROVED, ,DE43416,ATTN:  SUN COMMUNITIES INC,GEOPLAN,DBPR,"BUSINESS ANALYST 2018, LOCATOR: POINTADDRESS, SCORE: 100, [4052 HOLLIS AVE, PORT CHARLOTTE, FLORIDA, 33953]",26.97355242,-82.20964251,17RLK7995284081,https://www.google.com/maps/place/17RLK7995284081,2089,VIZCAYA LAKES,NV,2019-04-14T00:00:00.000Z,2019-04-16T00:00:00.000Z
-82.10331204,29.2030401,2090,PRMZ001299,8978,WAGON WHEEL MOBILE HOME PARK,1612 NE 25TH AVE,OCALA,34470,MARION,MOBILE HOME PARK,PRIVATE,PRIVATE,126,8/21/1985,APPROVED, ,DE45873, ,GEOPLAN,DBPR,"BUSINESS ANALYST 2018, LOCATOR: POINTADDRESS, SCORE: 100, [1612 NE 25TH AVE, OCALA, FLORIDA, 34470]",29.20304011,-82.10331204,17RLN9274530985,https://www.google.com/maps/place/17RLN9274530985,2090,WAGON WHEEL MOBILE HOME PARK,NV,2019-04-14T00:00:00.000Z,2019-04-16T00:00:00.000Z
-81.43660227,28.27815996,2091,PRMY002170,7293,WAGON WHEEL MOBILE HOME PARK,1410 S  HOAGLAND BLVD,KISSIMMEE,34741,OSCEOLA,MOBILE HOME PARK,PRIVATE,PRIVATE,25,11/15/1984,APPROVED, ,DE40675,C/O WILLIAM OLEYAR,GEOPLAN,DBPR,"BUSINESS ANALYST 2018, LOCATOR: POINTADDRESS, SCORE: 100, [1410 S HOAGLAND BLVD, KISSIMMEE, FLORIDA, 34741]",28.27815996,-81.43660227,17RMM5718328093,https://www.google.com/maps/place/17RMM5718328093,2091,WAGON WHEEL MOBILE HOME PARK,NV,2019-04-14T00:00:00.000Z,2019-04-16T00:00:00.000Z
-82.63291541,29.12522325,2092,PRMY002912,7572,WAGON WHEEL MP,8150 SE 140TH LN,INGLIS,34449,LEVY,MOBILE HOME PARK,PRIVATE,PRIVATE,21,5/23/1988,APPROVED, ,DE44461,ATTN-ROBERT V OBERT,GEOPLAN,DBPR,"BUSINESS ANALYST 2018, LOCATOR: POINTADDRESS, SCORE: 100, [8150 SE 140TH LN, INGLIS, FLORIDA, 34449]",29.12522325,-82.63291541,17RLN4113522961,https://www.google.com/maps/place/17RLN4113522961,2092,WAGON WHEEL MP,NV,2019-04-14T00:00:00.000Z,2019-04-16T00:00:00.000Z
-84.22924904,30.23544307,2093,PRMY003442,7754,WAKULLA STATION MOBILE HOME COMMUNITY,56 SHARMAN CIR,CRAWFORDVILLE,32327,WAKULLA,MOBILE HOME PARK,PRIVATE,PRIVATE,14,11/21/1994,APPROVED, ,DE00018953, ,GEOPLAN,DBPR,"BUSINESS ANALYST 2018, LOCATOR: POINTADDRESS, SCORE: 100, [56 SHARMAN CIR, CRAWFORDVILLE, FLORIDA, 32327]",30.23544307,-84.22924904,16RGU6665148123,https://www.google.com/maps/place/16RGU6665148123,2093,WAKULLA STATION MOBILE HOME COMMUNITY,NV,2019-04-14T00:00:00.000Z,2019-04-16T00:00:00.000Z
-81.41429745,27.85917739,2094,PRMZ003235,9722,WALDEN SHORES,2204 THOREAU DR,LAKE WALES,33898,POLK,MOBILE HOME PARK,PRIVATE,PRIVATE,159,7/11/1990,APPROVED, ,DE43746,C/O WAYNE C RICKERT,GEOPLAN,DBPR,"BUSINESS ANALYST 2018, LOCATOR: POINTADDRESS, SCORE: 100, [2204 THOREAU DR, LAKE WALES, FLORIDA, 33898]",27.85917739,-81.41429745,17RML5921281672,https://www.google.com/maps/place/17RML5921281672,2094,WALDEN SHORES,NV,2019-04-14T00:00:00.000Z,2019-04-16T00:00:00.000Z
-82.55050984,28.70984101,2095,PRMZ001479,9132,WALDEN WOODS,7193 W WALDEN WOODS DR,HOMOSASSA,34446,CITRUS,MOBILE HOME PARK,PRIVATE,PRIVATE,217,11/14/1985,APPROVED, ,DE44099,ATTN:  SUN COMMUNITIES INC,GEOPLAN,DBPR,"BUSINESS ANALYST 2018, LOCATOR: POINTADDRESS, SCORE: 100, [7193 W WALDEN WOODS DR, HOMOSASSA, FLORIDA, 34446]",28.70984101,-82.55050984,17RLM4855176824,https://www.google.com/maps/place/17RLM4855176824,2095,WALDEN WOODS,NV,2019-04-14T00:00:00.000Z,2019-04-16T00:00:00.000Z
-82.55050984,28.70984101,2096,PR9782,9804,WALDEN WOODS NORTH,7193 W WALDEN WOODS DR,HOMOSASSA,34446,CITRUS,MOBILE HOME PARK,PRIVATE,PRIVATE,213,5/22/2003,APPROVED, ,DE44113,ATTN:  SUN COMMUNITIES INC,GEOPLAN,DBPR,"BUSINESS ANALYST 2018, LOCATOR: POINTADDRESS, SCORE: 100, [7193 W WALDEN WOODS DR, HOMOSASSA, FLORIDA, 34446]",28.70984101,-82.55050984,17RLM4855176824,https://www.google.com/maps/place/17RLM4855176824,2096,WALDEN WOODS NORTH,NV,2019-04-14T00:00:00.000Z,2019-04-16T00:00:00.000Z
-82.55031054,28.70813817,2097,PR9810,9849,WALDEN WOODS SOUTH,10522 S PEBBLESHIRE DR,HOMOSASSA,34446,CITRUS,MOBILE HOME PARK,PRIVATE,PRIVATE,236,10/23/2007,APPROVED, ,DE00016141,ATTN: TERRY TREXLER PRESIDENT,GEOPLAN,DBPR,"BUSINESS ANALYST 2018, LOCATOR: POINTADDRESS, SCORE: 100, [10522 S PEBBLESHIRE DR, HOMOSASSA, FLORIDA, 34446]",28.70813817,-82.55031054,17RLM4856876635,https://www.google.com/maps/place/17RLM4856876635,2097,WALDEN WOODS SOUTH,NV,2019-04-14T00:00:00.000Z,2019-04-16T00:00:00.000Z
-85.67883032,30.80539838,2098,PRMY003603,7821,WALTONS MOBILE HOME PARK II,114 PECAN DR AND SR 79 NORTH,BONIFAY,32425,HOLMES,MOBILE HOME PARK,PRIVATE,PRIVATE,20,9/6/2000,APPROVED,DELINQUENT,DE41891, ,GEOPLAN,DBPR,"BUSINESS ANALYST 2018, LOCATOR: POINTADDRESS, SCORE: 100, [114 PECAN DR, BONIFAY, FLORIDA, 32425]",30.80539838,-85.67883032,16RFV2638808782,https://www.google.com/maps/place/16RFV2638808782,2098,WALTONS MOBILE HOME PARK II,NV,2019-04-14T00:00:00.000Z,2019-04-16T00:00:00.000Z
-86.63265883,30.46440867,2099,PRMY002040,7237,WARD'S MHP,1502 E PONDEROSA ST,FORT WALTON BEACH,32547,OKALOOSA,MOBILE HOME PARK,PRIVATE,PRIVATE,15,11/12/1985,APPROVED, ,DE00013286, ,GEOPLAN,DBPR,"BUSINESS ANALYST 2018, LOCATOR: POINTADDRESS, SCORE: 90.92, [1502 E PONDEROSA RD, FORT WALTON BEACH, FLORIDA, 32547]",30.46440867,-86.63265883,16REU3526370305,https://www.google.com/maps/place/16REU3526370305,2099,WARD'S MHP,NV,2019-04-14T00:00:00.000Z,2019-04-16T00:00:00.000Z
-81.4405814,27.50092147,2100,PRMY003394,7726,WASHBURN   MOBILE HOME PARK,542 POMEGRANATE AVE #12,SEBRING,33870,HIGHLANDS,MOBILE HOME PARK,PRIVATE,PRIVATE,1,8/30/1994,APPROVED, ,DE46222, ,GEOPLAN,DBPR,"BUSINESS ANALYST 2018, LOCATOR: POINTADDRESS, SCORE: 100, [542 POMEGRANATE AVE, SEBRING, FLORIDA, 33870]",27.50092147,-81.4405814,17RML5648341996,https://www.google.com/maps/place/17RML5648341996,2100,WASHBURN   MOBILE HOME PARK,NV,2019-04-14T00:00:00.000Z,2019-04-16T00:00:00.000Z
-81.91916004,28.9266536,2101,PRMZ001297,8976,WATER OAK COUNTRY CLUB ESTATES,106 EVERGREEN LANE,LADY LAKE,32159,LAKE,MOBILE HOME PARK,PRIVATE,PRIVATE,1316,7/25/1985,APPROVED, ,DE00018561,THE AMERICAN CENTER,GEOPLAN,DBPR,"BUSINESS ANALYST 2018, LOCATOR: POINTADDRESS, SCORE: 100, [106 EVERGREEN LN, LADY LAKE, FLORIDA, 32159]",28.9266536,-81.91916004,17RMN1040900207,https://www.google.com/maps/place/17RMN1040900207,2101,WATER OAK COUNTRY CLUB ESTATES,NV,2019-04-14T00:00:00.000Z,2019-04-16T00:00:00.000Z
-80.99519833,29.15827895,2102,PRMZ001318,8997,WATER'S EDGE MOBILE HOME PARK,2800 SOUTH RIDGEWOOD AVENUE,SOUTH DAYTONA,32119,VOLUSIA,MOBILE HOME PARK,PRIVATE,PRIVATE,55,5/2/1986,APPROVED, ,DE00012286, ,GEOPLAN,DBPR,"BUSINESS ANALYST 2018, LOCATOR: POINTADDRESS, SCORE: 100, [2800 S RIDGEWOOD AVE, SOUTH DAYTONA, FLORIDA, 32119]",29.15827895,-80.99519833,17RNN0046725522,https://www.google.com/maps/place/17RNN0046725522,2102,WATER'S EDGE MOBILE HOME PARK,NV,2019-04-14T00:00:00.000Z,2019-04-16T00:00:00.000Z
-85.5975894,30.11652034,2103,PRMY003631,7827,WATERS EDGE,6010 E HIGHWAY 98 #12,PANAMA CITY,32404,BAY,MOBILE HOME PARK,PRIVATE,PRIVATE,12,8/21/2000,APPROVED, ,DE00021795, ,GEOPLAN,DBPR,"BUSINESS ANALYST 2018, LOCATOR: STREETADDRESS, SCORE: 100, [6010 E HIGHWAY 98, PANAMA CITY, FLORIDA, 32404]",30.11652034,-85.5975894,16RFU3510832527,https://www.google.com/maps/place/16RFU3510832527,2103,WATERS EDGE,NV,2019-04-14T00:00:00.000Z,2019-04-16T00:00:00.000Z
-81.73487167,24.57363341,2104,PRMZ001488,9139,WATERS EDGE COLONY MOBILE HOME PARK,5700 LAUREL AVE,KEY WEST,33040,MONROE,MOBILE HOME PARK,PRIVATE,PRIVATE,61,8/12/1987,APPROVED, ,DE46128, ,GEOPLAN,DBPR,"BUSINESS ANALYST 2018, LOCATOR: POINTADDRESS, SCORE: 100, [5700 LAUREL AVE, KEY WEST, FLORIDA, 33040]",24.57363341,-81.73487168,17RMH2558917937,https://www.google.com/maps/place/17RMH2558917937,2104,WATERS EDGE COLONY MOBILE HOME PARK,NV,2019-04-14T00:00:00.000Z,2019-04-16T00:00:00.000Z
-82.59459553,27.4604689,2105,PRMZ000241,8058,WATERSIDE CLUB,4516 CALM HARBOR ST,BRADENTON,34207,MANATEE,MOBILE HOME PARK,PRIVATE,PRIVATE,109,11/7/1985,APPROVED, ,DE43331, ,GEOPLAN,DBPR,"BUSINESS ANALYST 2018, LOCATOR: STREETADDRESS, SCORE: 100, [4516 CALM HARBOR ST, BRADENTON, FLORIDA, 34207]",27.4604689,-82.59459553,17RLL4243038449,https://www.google.com/maps/place/17RLL4243038449,2105,WATERSIDE CLUB,NV,2019-04-14T00:00:00.000Z,2019-04-16T00:00:00.000Z
-82.36392538,28.90191514,2106,PRMY002302,7341,WATSON'S RESORT AND FISH CAMP OF CITRUS COUNTY,4195 E PARSON'S POINT RD,HERNANDO,34442,CITRUS,MOBILE HOME PARK,PRIVATE,PRIVATE,22,11/4/1987,APPROVED,DELINQUENT,DE45616, ,GEOPLAN,DBPR,"BUSINESS ANALYST 2018, LOCATOR: POINTADDRESS, SCORE: 99.1, [4195 E PARSONS POINT RD, HERNANDO, FLORIDA, 34442]",28.90191514,-82.36392538,17RLM6702297884,https://www.google.com/maps/place/17RLM6702297884,2106,WATSON'S RESORT AND FISH CAMP OF CITRUS COUNTY,NV,2019-04-14T00:00:00.000Z,2019-04-16T00:00:00.000Z
-83.01390157,30.30921436,2107,PRMZ001314,8993,WAYNE FRIERS MHP,12910 US HWY 90 W,LIVE OAK,32060,SUWANNEE,MOBILE HOME PARK,PRIVATE,PRIVATE,133,7/12/1985,APPROVED, ,DE00012282, ,GEOPLAN,DBPR,"BUSINESS ANALYST 2018, LOCATOR: POINTADDRESS, SCORE: 92.43, [12910 US HIGHWAY 90, LIVE OAK, FLORIDA, 32060]",30.30921436,-83.01390157,17RLP0634954768,https://www.google.com/maps/place/17RLP0634954768,2107,WAYNE FRIERS MHP,NV,2019-04-14T00:00:00.000Z,2019-04-16T00:00:00.000Z
-82.57541147,27.44963099,2108,PRMZ001191,8880,WAYSIDE GLEN COMMUNITY,5120 14TH ST W,BRADENTON,33507,MANATEE,MOBILE HOME PARK,PRIVATE,PRIVATE,118,6/7/1985,APPROVED, ,DE45419,WAYSIDE MHP LLC,GEOPLAN,DBPR,"BUSINESS ANALYST 2018, LOCATOR: POINTADDRESS, SCORE: 92.08, [5120 14TH ST W, BRADENTON, FLORIDA, 34207]",27.44963099,-82.57541147,17RLL4431037224,https://www.google.com/maps/place/17RLL4431037224,2108,WAYSIDE GLEN COMMUNITY,NV,2019-04-14T00:00:00.000Z,2019-04-16T00:00:00.000Z
-81.90612937,26.7238613,2109,PRMZ001298,8977,WD TRAILER PARK,17881 N TAMIAMI TR,NORTH FORT MYERS,33903,LEE,MOBILE HOME PARK,PRIVATE,PRIVATE,29,6/10/1986,APPROVED, ,DE00016755, ,GEOPLAN,DBPR,"BUSINESS ANALYST 2018, LOCATOR: POINTADDRESS, SCORE: 100, [17881 N TAMIAMI TRL, NORTH FORT MYERS, FLORIDA, 33903]",26.7238613,-81.90612937,17RMK0987756171,https://www.google.com/maps/place/17RMK0987756171,2109,WD TRAILER PARK,NV,2019-04-14T00:00:00.000Z,2019-04-16T00:00:00.000Z
-82.06989152,28.61001305,2110,PRMZ001319,8998,WEBSTER MH & TRAVEL PARK,2085 CR 740,WEBSTER,33597,SUMTER,MOBILE HOME PARK,PRIVATE,PRIVATE,22,11/25/1986,APPROVED, ,DE46096, ,GEOPLAN,DBPR,"BUSINESS ANALYST 2018, LOCATOR: POINTADDRESS, SCORE: 100, [2085 CR-740, WEBSTER, FLORIDA, 33597]",28.61001305,-82.06989152,17RLM9540165247,https://www.google.com/maps/place/17RLM9540165247,2110,WEBSTER MH & TRAVEL PARK,NV,2019-04-14T00:00:00.000Z,2019-04-16T00:00:00.000Z
-82.54964035,28.60608753,2111,PRMZ001322,9000,WEEKI WACHEE NORTH,10401 AMITY AVE,BROOKSVILLE,34614,HERNANDO,MOBILE HOME PARK,PRIVATE,PRIVATE,180,1/21/1986,APPROVED, ,DE00022459,ATTN: CT CORPORATION,GEOPLAN,DBPR,"BUSINESS ANALYST 2018, LOCATOR: POINTADDRESS, SCORE: 100, [10401 AMITY AVE, BROOKSVILLE, FLORIDA, 34614]",28.60608753,-82.54964035,17RLM4848665326,https://www.google.com/maps/place/17RLM4848665326,2111,WEEKI WACHEE NORTH,NV,2019-04-14T00:00:00.000Z,2019-04-16T00:00:00.000Z
-80.13086067,26.05274815,2112,PRMZ001281,8962,WEINER'S MHP & SALES,801 E DANIA BEACH BLVD,DANIA,33004,BROWARD,MOBILE HOME PARK,PRIVATE,PRIVATE,36,4/25/1985,APPROVED, ,DE45118,RITTER ZARETSKY LIEBER & JAIME LLP,GEOPLAN,DBPR,"BUSINESS ANALYST 2018, LOCATOR: POINTADDRESS, SCORE: 100, [801 E DANIA BEACH BLVD, DANIA, FLORIDA, 33004]",26.05274815,-80.13086067,17RNJ8694581815,https://www.google.com/maps/place/17RNJ8694581815,2112,WEINER'S MHP & SALES,NV,2019-04-14T00:00:00.000Z,2019-04-16T00:00:00.000Z
-81.92689102,29.04067776,2113,PRMY002194,7314,WEIR WIND VILLAGE,12480 SE 136 CT,OCKLAWAHA,32179,MARION,MOBILE HOME PARK,PRIVATE,PRIVATE,19,11/28/1984,APPROVED, ,DE43563,C/O NELSON'S REALTY SERVICES INC,GEOPLAN,DBPR,"BUSINESS ANALYST 2018, LOCATOR: POINTADDRESS, SCORE: 100, [12480 SE 136TH CT, OCKLAWAHA, FLORIDA, 32179]",29.04067776,-81.92689102,17RMN0975412847,https://www.google.com/maps/place/17RMN0975412847,2113,WEIR WIND VILLAGE,NV,2019-04-14T00:00:00.000Z,2019-04-16T00:00:00.000Z
-87.22373012,30.47196483,2114,PRMZ001287,8967,WELCOME MAT TP,519 CORDAY ST,PENSACOLA,32503,ESCAMBIA,MOBILE HOME PARK,PRIVATE,PRIVATE,21,7/26/1985,APPROVED, ,DE43578, ,GEOPLAN,DBPR,"BUSINESS ANALYST 2018, LOCATOR: POINTADDRESS, SCORE: 100, [519 CORDAY ST, PENSACOLA, FLORIDA, 32503]",30.47196483,-87.22373012,16RDU7852571106,https://www.google.com/maps/place/16RDU7852571106,2114,WELCOME MAT TP,NV,2019-04-14T00:00:00.000Z,2019-04-16T00:00:00.000Z
-82.80534097,27.91676758,2115,PRMZ001207,8894,WEST BAY OAKS MOBILE HOME AND RV PARK,1610 W BAY DR,LARGO,33770,PINELLAS,MOBILE HOME PARK,PRIVATE,PRIVATE,99,2/13/1986,APPROVED, ,DE45132,"C/O RIVERSTONE COMMUNITIES, LLC",GEOPLAN,DBPR,"BUSINESS ANALYST 2018, LOCATOR: POINTADDRESS, SCORE: 100, [1610 W BAY DR, LARGO, FLORIDA, 33770]",27.91676758,-82.80534097,17RLL2234189293,https://www.google.com/maps/place/17RLL2234189293,2115,WEST BAY OAKS MOBILE HOME AND RV PARK,NV,2019-04-14T00:00:00.000Z,2019-04-16T00:00:00.000Z
-80.29366941,25.76335312,2116,PRMZ001280,8961,WEST HAVEN MOTEL AND TRAILER COURT,6020 SW 8TH ST,WEST MIAMI,33144,DADE,MOBILE HOME PARK,PRIVATE,PRIVATE,21,1/3/1986,APPROVED, ,DE00012256, ,GEOPLAN,DBPR,"BUSINESS ANALYST 2018, LOCATOR: POINTADDRESS, SCORE: 100, [6020 SW 8TH ST, WEST MIAMI, FLORIDA, 33144]",25.76335312,-80.29366941,17RNJ7083049667,https://www.google.com/maps/place/17RNJ7083049667,2116,WEST HAVEN MOTEL AND TRAILER COURT,NV,2019-04-14T00:00:00.000Z,2019-04-16T00:00:00.000Z
-82.03619245,29.60378906,2117,PRMY003505,7794,WEST OAKS TRAILER PARK,111 GORDON CHAPEL RD,HAWTHORNE,32640,PUTNAM,MOBILE HOME PARK,PRIVATE,PRIVATE,13,10/1/1992,APPROVED, ,DE00019372, ,GEOPLAN,DBPR,"BUSINESS ANALYST 2018, LOCATOR: POINTADDRESS, SCORE: 100, [111 GORDON CHAPEL RD, HAWTHORNE, FLORIDA, 32640]",29.60378906,-82.03619245,17RLN9966475332,https://www.google.com/maps/place/17RLN9966475332,2117,WEST OAKS TRAILER PARK,NV,2019-04-14T00:00:00.000Z,2019-04-16T00:00:00.000Z
-82.06432726,29.05856521,2118,PRMY001961,7182,WEST SIDE PARK,11278 SE 55TH AVE RD BOX 16,BELLEVIEW,34420,MARION,MOBILE HOME PARK,PRIVATE,PRIVATE,15,10/25/1984,APPROVED, ,DE45296, ,GEOPLAN,DBPR,"BUSINESS ANALYST 2018, LOCATOR: POINTADDRESS, SCORE: 100, [11278 SE 55TH AVENUE RD, BELLEVIEW, FLORIDA, 34420]",29.05856521,-82.06432726,17RLN9639014942,https://www.google.com/maps/place/17RLN9639014942,2118,WEST SIDE PARK,NV,2019-04-14T00:00:00.000Z,2019-04-16T00:00:00.000Z
-84.39411145,30.45986892,2119,PRMZ002979,9655,WESTERN ESTATES,8071 IDA RD,TALLAHASSEE,32304,LEON,MOBILE HOME PARK,PRIVATE,PRIVATE,103,8/28/1992,APPROVED,DELINQUENT,DE00015077, ,GEOPLAN,DBPR,"BUSINESS ANALYST 2018, LOCATOR: POINTADDRESS, SCORE: 100, [8071 IDA RD, TALLAHASSEE, FLORIDA, 32304]",30.45986892,-84.39411145,16RGU5020772630,https://www.google.com/maps/place/16RGU5020772630,2119,WESTERN ESTATES,NV,2019-04-14T00:00:00.000Z,2019-04-16T00:00:00.000Z
-80.32251055,26.11327315,2120,PRMZ000901,8630,WESTERN HILLS EST,13000 SW 5 COURT,DAVIE,33325,BROWARD,MOBILE HOME PARK,PRIVATE,PRIVATE,405,10/16/1985,APPROVED, ,DE44666, ,GEOPLAN,DBPR,"BUSINESS ANALYST 2018, LOCATOR: POINTADDRESS, SCORE: 100, [13000 SW 5TH CT, DAVIE, FLORIDA, 33325]",26.11327315,-80.32251055,17RNJ6773788404,https://www.google.com/maps/place/17RNJ6773788404,2120,WESTERN HILLS EST,NV,2019-04-14T00:00:00.000Z,2019-04-16T00:00:00.000Z
-82.74564424,27.9011438,2121,PRMZ001307,8986,WESTGATE COMMUNITY,14099 BELCHER RD,LARGO,33771,PINELLAS,MOBILE HOME PARK,PRIVATE,PRIVATE,263,10/16/1985,APPROVED, ,DE43005, ,GEOPLAN,DBPR,"BUSINESS ANALYST 2018, LOCATOR: STREETADDRESS, SCORE: 92.43, [14099 S BELCHER RD, LARGO, FLORIDA, 33771]",27.9011438,-82.74564424,17RLL2819287477,https://www.google.com/maps/place/17RLL2819287477,2121,WESTGATE COMMUNITY,NV,2019-04-14T00:00:00.000Z,2019-04-16T00:00:00.000Z
-80.80310046,28.36706378,2122,PRMZ000900,8629,WESTGATE MOBILE HOME PARK,5051 ECSTASY CIR,COCOA,32926,BREVARD,MOBILE HOME PARK,PRIVATE,PRIVATE,108,4/7/1986,APPROVED, ,DE41571,RIVERSTONE COMMUNITIES LLC,GEOPLAN,DBPR,"BUSINESS ANALYST 2018, LOCATOR: STREETADDRESS, SCORE: 100, [5051 ECSTASY CIR, COCOA, FLORIDA, 32926]",28.36706378,-80.80310046,17RNM1929437881,https://www.google.com/maps/place/17RNM1929437881,2122,WESTGATE MOBILE HOME PARK,NV,2019-04-14T00:00:00.000Z,2019-04-16T00:00:00.000Z
-82.40510368,29.60753509,2123,PRMZ000894,8623,WESTGATE MOBILE MANOR,5816 SW ARCHER RD STE 1,GAINESVILLE,32608,ALACHUA,MOBILE HOME PARK,PRIVATE,PRIVATE,157,2/28/1986,APPROVED, ,DE00011882, ,GEOPLAN,DBPR,"BUSINESS ANALYST 2018, LOCATOR: POINTADDRESS, SCORE: 100, [5816 SW ARCHER RD, GAINESVILLE, FLORIDA, 32608]",29.60753509,-82.40510368,17RLN6394476123,https://www.google.com/maps/place/17RLN6394476123,2123,WESTGATE MOBILE MANOR,NV,2019-04-14T00:00:00.000Z,2019-04-16T00:00:00.000Z
-80.21686074,25.84683797,2124,PRMZ003080,9677,WESTLAND MOBILE HOME PARK,1175 NW 79TH ST,MIAMI,33150,DADE,MOBILE HOME PARK,PRIVATE,PRIVATE,74,4/20/1989,APPROVED, ,DE38508,C/O ROBERTO TARAFA,GEOPLAN,DBPR,"BUSINESS ANALYST 2018, LOCATOR: POINTADDRESS, SCORE: 100, [1175 NW 79TH ST, MIAMI, FLORIDA, 33150]",25.84683797,-80.21686074,17RNJ7847858956,https://www.google.com/maps/place/17RNJ7847858956,2124,WESTLAND MOBILE HOME PARK,NV,2019-04-14T00:00:00.000Z,2019-04-16T00:00:00.000Z
-82.11778742,29.94638642,2125,PRMY002344,7346,WESTMORELAND TRAILER CT,234 WESTMORELAND ST,STARKE,32091,BRADFORD,MOBILE HOME PARK,PRIVATE,PRIVATE,18,12/22/1987,APPROVED, ,DE44400,C/O REBECCA SMITH,GEOPLAN,DBPR,"BUSINESS ANALYST 2018, LOCATOR: STREETADDRESS, SCORE: 92.43, [234 N WESTMORELAND ST, STARKE, FLORIDA, 32091]",29.94638642,-82.11778742,17RLP9213113370,https://www.google.com/maps/place/17RLP9213113370,2125,WESTMORELAND TRAILER CT,NV,2019-04-14T00:00:00.000Z,2019-04-16T00:00:00.000Z
-81.65770169,29.63113948,2126,PRMY002412,7374,WESTOVER MHP,2218 WESTOVER DR,PALATKA,32177,PUTNAM,MOBILE HOME PARK,PRIVATE,PRIVATE,25,4/23/1987,APPROVED,DELINQUENT,DE45709, ,GEOPLAN,DBPR,"BUSINESS ANALYST 2018, LOCATOR: POINTADDRESS, SCORE: 100, [2218 WESTOVER DR, PALATKA, FLORIDA, 32177]",29.63113948,-81.65770169,17RMN3633278094,https://www.google.com/maps/place/17RMN3633278094,2126,WESTOVER MHP,NV,2019-04-14T00:00:00.000Z,2019-04-16T00:00:00.000Z
-81.81745678,28.06972108,2127,PRMZ001779,9399,WESTSIDE RIDGE,900 BERKLEY RD,AUBURNDALE,33823,POLK,MOBILE HOME PARK,PRIVATE,PRIVATE,225,8/21/1987,APPROVED, ,DE44098,ATTN:  SUN COMMUNITIES INC,GEOPLAN,DBPR,"BUSINESS ANALYST 2018, LOCATOR: STREETADDRESS, SCORE: 100, [900 BERKLEY RD, AUBURNDALE, FLORIDA, 33823]",28.06972108,-81.81745678,17RMM1967605195,https://www.google.com/maps/place/17RMM1967605195,2127,WESTSIDE RIDGE,NV,2019-04-14T00:00:00.000Z,2019-04-16T00:00:00.000Z
-82.73841174,28.04295765,2128,PRMZ001308,8987,WESTWIND I MHP,3301 US HWY 19 N,DUNEDIN,34698,PINELLAS,MOBILE HOME PARK,PRIVATE,PRIVATE,66,5/10/1985,APPROVED, ,DE00022149, ,GEOPLAN,DBPR,"BUSINESS ANALYST 2018, LOCATOR: STREETNAME, SCORE: 92.08, [US-19 N, DUNEDIN, FLORIDA, 33761]",28.04295765,-82.73841174,17RLM2912803180,https://www.google.com/maps/place/17RLM2912803180,2128,WESTWIND I MHP,NV,2019-04-14T00:00:00.000Z,2019-04-16T00:00:00.000Z
-82.73841174,28.04295765,2129,PRMZ001309,8988,WESTWIND II ROC,3301 ALT US 19 N,DUNEDIN,34698,PINELLAS,MOBILE HOME PARK,PRIVATE,PRIVATE,39,5/10/1985,APPROVED, ,DE00022150, ,GEOPLAN,DBPR,"BUSINESS ANALYST 2018, LOCATOR: STREETNAME, SCORE: 92.08, [US-19 N, DUNEDIN, FLORIDA, 33761]",28.04295765,-82.73841174,17RLM2912803180,https://www.google.com/maps/place/17RLM2912803180,2129,WESTWIND II ROC,NV,2019-04-14T00:00:00.000Z,2019-04-16T00:00:00.000Z
-82.49534979,27.44623346,2130,PRMZ001283,8964,WESTWINDS VILLAGE,5316 53RD AVE E,BRADENTON,34203,MANATEE,MOBILE HOME PARK,PRIVATE,PRIVATE,9,12/23/1985,APPROVED, ,DE00017041, ,GEOPLAN,DBPR,"BUSINESS ANALYST 2018, LOCATOR: POINTADDRESS, SCORE: 100, [5316 53RD AVE E, BRADENTON, FLORIDA, 34203]",27.44623346,-82.49534979,17RLL5221936750,https://www.google.com/maps/place/17RLL5221936750,2130,WESTWINDS VILLAGE,NV,2019-04-14T00:00:00.000Z,2019-04-16T00:00:00.000Z
-81.07421336,29.25333522,2131,PRMZ001316,8995,WESTWOOD MOBILE HOME PARK,1804 NELSON AVE,ORMOND BEACH,32174,VOLUSIA,MOBILE HOME PARK,PRIVATE,PRIVATE,41,10/17/1985,APPROVED, ,DE00016295, ,GEOPLAN,DBPR,"BUSINESS ANALYST 2018, LOCATOR: POINTADDRESS, SCORE: 100, [1804 NELSON AVE, ORMOND BEACH, FLORIDA, 32174]",29.25333522,-81.07421336,17RMN9278936056,https://www.google.com/maps/place/17RMN9278936056,2131,WESTWOOD MOBILE HOME PARK,NV,2019-04-14T00:00:00.000Z,2019-04-16T00:00:00.000Z
-80.85543802,28.68743712,2132,PRMZ000902,8631,WESTWOOD MOBILE PARK,3210 US HWY 1,MIMS,32754,BREVARD,MOBILE HOME PARK,PRIVATE,PRIVATE,24,12/17/1985,APPROVED, ,DE00016247, ,GEOPLAN,DBPR,"BUSINESS ANALYST 2018, LOCATOR: POINTADDRESS, SCORE: 100, [3210 US-1 S, MIMS, FLORIDA, 32754]",28.68743713,-80.85543802,17RNM1412273366,https://www.google.com/maps/place/17RNM1412273366,2132,WESTWOOD MOBILE PARK,NV,2019-04-14T00:00:00.000Z,2019-04-16T00:00:00.000Z
-81.59998044,28.54704918,2133,PRMZ003193,9694,WESTWOOD VILLAGE,850 SWALLOWTAIL DR,WINTER GARDEN,34787,ORANGE,MOBILE HOME PARK,PRIVATE,PRIVATE,63,10/2/1989,APPROVED, ,DE00016021, ,GEOPLAN,DBPR,"BUSINESS ANALYST 2018, LOCATOR: STREETADDRESS, SCORE: 98.96, [850 SWALLOW TAIL DR, WINTER GARDEN, FLORIDA, 34787]",28.54704918,-81.59998044,17RMM4130857951,https://www.google.com/maps/place/17RMM4130857951,2133,WESTWOOD VILLAGE,NV,2019-04-14T00:00:00.000Z,2019-04-16T00:00:00.000Z
-81.39665943,28.48643034,2134,PRMZ001288,8968,WHEEL ESTATES,5225 S ORANGE BLOSSOM TR,ORLANDO,32839,ORANGE,MOBILE HOME PARK,PRIVATE,PRIVATE,53,12/30/1985,APPROVED, ,DE44665, ,GEOPLAN,DBPR,"BUSINESS ANALYST 2018, LOCATOR: POINTADDRESS, SCORE: 100, [5225 S ORANGE BLOSSOM TRL, ORLANDO, FLORIDA, 32839]",28.48643035,-81.39665943,17RMM6117651153,https://www.google.com/maps/place/17RMM6117651153,2134,WHEEL ESTATES,NV,2019-04-14T00:00:00.000Z,2019-04-16T00:00:00.000Z
-81.57002092,27.75550783,2135,PRMZ002562,9566,WHIDDEN MHP,400 COUNTY ROAD 630-A,FROSTPROOF,33843,POLK,MOBILE HOME PARK,PRIVATE,PRIVATE,103,6/24/1988,APPROVED, ,DE00014106, ,GEOPLAN,DBPR,"BUSINESS ANALYST 2018, LOCATOR: POINTADDRESS, SCORE: 97.75, [400 COUNTY ROAD 630A, FROSTPROOF, FLORIDA, 33843]",27.75550783,-81.57002092,17RML4382870249,https://www.google.com/maps/place/17RML4382870249,2135,WHIDDEN MHP,NV,2019-04-14T00:00:00.000Z,2019-04-16T00:00:00.000Z
-81.49454911,27.52766114,2136,PRMZ001284,8965,WHISPER LAKE,1429 WHISPER LAKE BLVD,SEBRING,33870,HIGHLANDS,MOBILE HOME PARK,PRIVATE,PRIVATE,254,7/19/1985,APPROVED, ,DE00016262, ,GEOPLAN,DBPR,"BUSINESS ANALYST 2018, LOCATOR: POINTADDRESS, SCORE: 90.92, [1429 WHISPER CIR, SEBRING, FLORIDA, 33870]",27.52766114,-81.49454911,17RML5116444978,https://www.google.com/maps/place/17RML5116444978,2136,WHISPER LAKE,NV,2019-04-14T00:00:00.000Z,2019-04-16T00:00:00.000Z
-80.34187356,27.48420771,2137,PRMZ001043,8754,WHISPERING CREEK CO-OP,2023 ST LUCIE BLVD,FORT PIERCE,34946,ST LUCIE,MOBILE HOME PARK,PRIVATE,PRIVATE,245,10/1/1985,APPROVED, ,DE00022742, ,GEOPLAN,DBPR,"BUSINESS ANALYST 2018, LOCATOR: POINTADDRESS, SCORE: 100, [2023 ST LUCIE BLVD, FORT PIERCE, FLORIDA, 34946]",27.48420771,-80.34187356,17RNL6501540240,https://www.google.com/maps/place/17RNL6501540240,2137,WHISPERING CREEK CO-OP,NV,2019-04-14T00:00:00.000Z,2019-04-16T00:00:00.000Z
-82.04062963,29.04042834,2138,PRMZ001380,9050,WHISPERING OAKS,6787 SE 125TH ST,BELLEVIEW,34420,MARION,MOBILE HOME PARK,PRIVATE,PRIVATE,16,5/23/1985,APPROVED,DELINQUENT,DE44540,ATTN FELICIA CASEY-WHITTAKER,GEOPLAN,DBPR,"BUSINESS ANALYST 2018, LOCATOR: POINTADDRESS, SCORE: 100, [6787 SE 125TH ST, BELLEVIEW, FLORIDA, 34420]",29.04042834,-82.04062963,17RLN9867912911,https://www.google.com/maps/place/17RLN9867912911,2138,WHISPERING OAKS,NV,2019-04-14T00:00:00.000Z,2019-04-16T00:00:00.000Z
-81.66014931,29.62304135,2139,PRMY002182,7303,WHISPERING OAKS MH COMMUNITY,3429 BAINBRIDGE RD,PALATKA,32177,PUTNAM,MOBILE HOME PARK,PRIVATE,PRIVATE,25,9/4/1986,APPROVED,DELINQUENT,DE44637,C/O JAMES TRUE,GEOPLAN,DBPR,"BUSINESS ANALYST 2018, LOCATOR: POINTADDRESS, SCORE: 100, [3429 BAINBRIDGE RD, PALATKA, FLORIDA, 32177]",29.62304135,-81.66014931,17RMN3609077198,https://www.google.com/maps/place/17RMN3609077198,2139,WHISPERING OAKS MH COMMUNITY,NV,2019-04-14T00:00:00.000Z,2019-04-16T00:00:00.000Z
-81.32954319,28.69293544,2140,PRMZ000649,8410,WHISPERING OAKS MH VILLAGE,700 WHISPERING OAKS CIR,LONGWOOD,32750,SEMINOLE,MOBILE HOME PARK,PRIVATE,PRIVATE,35,3/3/1987,APPROVED, ,DE44173, ,GEOPLAN,DBPR,"BUSINESS ANALYST 2018, LOCATOR: STREETADDRESS, SCORE: 100, [700 WHISPERING OAKS CIR, LONGWOOD, FLORIDA, 32750]",28.69293544,-81.32954319,17RMM6780874011,https://www.google.com/maps/place/17RMM6780874011,2140,WHISPERING OAKS MH VILLAGE,NV,2019-04-14T00:00:00.000Z,2019-04-16T00:00:00.000Z
-81.40056863,28.3065477,2141,PRMZ001671,9306,WHISPERING OAKS MHP,1510 N ROYAL ST,KISSIMMEE,34744,OSCEOLA,MOBILE HOME PARK,PRIVATE,PRIVATE,76,6/26/1987,APPROVED, ,DE41587, ,GEOPLAN,DBPR,"BUSINESS ANALYST 2018, LOCATOR: POINTADDRESS, SCORE: 92.43, [1510 ROYAL ST, KISSIMMEE, FLORIDA, 34744]",28.3065477,-81.40056863,17RMM6072731226,https://www.google.com/maps/place/17RMM6072731226,2141,WHISPERING OAKS MHP,NV,2019-04-14T00:00:00.000Z,2019-04-16T00:00:00.000Z
-82.54886061,27.4512977,2142,PRMZ001336,9012,WHISPERING PALMS MANUFACTURED HOME COMMUNITY,1219 51ST AVE E,BRADENTON,34203,MANATEE,MOBILE HOME PARK,PRIVATE,PRIVATE,178,9/19/1985,APPROVED, ,DE45242, ,GEOPLAN,DBPR,"BUSINESS ANALYST 2018, LOCATOR: POINTADDRESS, SCORE: 100, [1219 51ST AVE E, BRADENTON, FLORIDA, 34203]",27.4512977,-82.54886061,17RLL4693737376,https://www.google.com/maps/place/17RLL4693737376,2142,WHISPERING PALMS MANUFACTURED HOME COMMUNITY,NV,2019-04-14T00:00:00.000Z,2019-04-16T00:00:00.000Z
-80.45162721,27.78130575,2143,PRMZ001001,8717,WHISPERING PALMS MOBILE VILLAGE,10305 US HWY 1,SEBASTIAN,32958,INDIAN RIVER,MOBILE HOME PARK,PRIVATE,PRIVATE,328,12/12/1985,APPROVED, ,DE39228, ,GEOPLAN,DBPR,"BUSINESS ANALYST 2018, LOCATOR: POINTADDRESS, SCORE: 100, [10305 US HIGHWAY 1, SEBASTIAN, FLORIDA, 32958]",27.78130575,-80.45162721,17RNL5402673097,https://www.google.com/maps/place/17RNL5402673097,2143,WHISPERING PALMS MOBILE VILLAGE,NV,2019-04-14T00:00:00.000Z,2019-04-16T00:00:00.000Z
-80.10573992,26.55896975,2144,PRMZ001791,9408,WHISPERING PINES,7900 LAWRENCE RD,BOYNTON BEACH,33436,PALM BEACH,MOBILE HOME PARK,PRIVATE,PRIVATE,304,4/19/1985,APPROVED, ,DE44541,C/O LAKESHORE MANAGEMENT,GEOPLAN,DBPR,"BUSINESS ANALYST 2018, LOCATOR: POINTADDRESS, SCORE: 100, [7900 LAWRENCE RD, BOYNTON BEACH, FLORIDA, 33436]",26.55896975,-80.10573992,17RNK8907037899,https://www.google.com/maps/place/17RNK8907037899,2144,WHISPERING PINES,NV,2019-04-14T00:00:00.000Z,2019-04-16T00:00:00.000Z
-80.14391115,26.27162955,2145,PRMZ000907,8635,WHISPERING PINES ADDITION,3311 NW 15TH AVE,POMPANO BEACH,33064,BROWARD,MOBILE HOME PARK,PRIVATE,PRIVATE,77,9/24/1985,APPROVED, ,DE00011894, ,GEOPLAN,DBPR,"BUSINESS ANALYST 2018, LOCATOR: POINTADDRESS, SCORE: 100, [3311 NW 15TH AVE, POMPANO BEACH, FLORIDA, 33064]",26.27162955,-80.14391115,17RNK8547906048,https://www.google.com/maps/place/17RNK8547906048,2145,WHISPERING PINES ADDITION,NV,2019-04-14T00:00:00.000Z,2019-04-16T00:00:00.000Z
-80.80345506,28.55743255,2146,PRMZ001516,9166,WHISPERING PINES MANUFACTURED HOME & RV COMMUNITY,359 CHENEY HWY,TITUSVILLE,32780,BREVARD,MOBILE HOME PARK,PRIVATE,PRIVATE,138,8/13/1987,APPROVED, ,DE00012465, ,GEOPLAN,DBPR,"BUSINESS ANALYST 2018, LOCATOR: STREETADDRESS, SCORE: 100, [359 CHENEY HWY, TITUSVILLE, FLORIDA, 32780]",28.55743255,-80.80345506,17RNM1922458970,https://www.google.com/maps/place/17RNM1922458970,2146,WHISPERING PINES MANUFACTURED HOME & RV COMMUNITY,NV,2019-04-14T00:00:00.000Z,2019-04-16T00:00:00.000Z
-81.56234937,27.73348973,2147,PRMZ001311,8990,WHISPERING PINES MANUFACTURED HOME COMMUNITY,101 SUNSHINE DR,FROSTPROOF,33843,POLK,MOBILE HOME PARK,PRIVATE,PRIVATE,198,2/26/1986,APPROVED, ,DE00010967,"ATTN: RICKERT PROPERTIES, INC",GEOPLAN,DBPR,"BUSINESS ANALYST 2018, LOCATOR: POINTADDRESS, SCORE: 100, [101 SUNSHINE DR, FROSTPROOF, FLORIDA, 33843]",27.73348973,-81.56234937,17RML4457267807,https://www.google.com/maps/place/17RML4457267807,2147,WHISPERING PINES MANUFACTURED HOME COMMUNITY,NV,2019-04-14T00:00:00.000Z,2019-04-16T00:00:00.000Z
-82.79543044,27.92407315,2148,PRMZ001305,8984,WHISPERING PINES MH VILLAGE,701 8TH AVE NW,LARGO,33770,PINELLAS,MOBILE HOME PARK,PRIVATE,PRIVATE,68,9/18/1985,APPROVED, ,DE00018281, ,GEOPLAN,DBPR,"BUSINESS ANALYST 2018, LOCATOR: POINTADDRESS, SCORE: 100, [701 8TH AVE NW, LARGO, FLORIDA, 33770]",27.92407315,-82.79543044,17RLL2332990088,https://www.google.com/maps/place/17RLL2332990088,2148,WHISPERING PINES MH VILLAGE,NV,2019-04-14T00:00:00.000Z,2019-04-16T00:00:00.000Z
-81.46938812,28.25213879,2149,PRMZ001223,8909,WHISPERING PINES MHC,4658 WHISPERING PINES BLVD,KISSIMMEE,34758,OSCEOLA,MOBILE HOME PARK,PRIVATE,PRIVATE,304,8/30/1985,APPROVED, ,DE44211,ATTN-KURT WALLACH,GEOPLAN,DBPR,"BUSINESS ANALYST 2018, LOCATOR: STREETADDRESS, SCORE: 100, [4658 WHISPERING PINES BLVD, KISSIMMEE, FLORIDA, 34758]",28.25213879,-81.46938812,17RMM5395625223,https://www.google.com/maps/place/17RMM5395625223,2149,WHISPERING PINES MHC,NV,2019-04-14T00:00:00.000Z,2019-04-16T00:00:00.000Z
-82.74230236,27.90153374,2150,PRMZ000998,8714,WHISPERING PINES MOBILE HOME PARK,7501 142ND AVE,LARGO,33771,PINELLAS,MOBILE HOME PARK,PRIVATE,PRIVATE,392,9/9/1985,APPROVED, ,DE44315,MHC OPERATING LTD PARTNERSHIP / LEGAL,GEOPLAN,DBPR,"BUSINESS ANALYST 2018, LOCATOR: STREETADDRESS, SCORE: 100, [7501 142ND AVE, LARGO, FLORIDA, 33771]",27.90153374,-82.74230236,17RLL2852287515,https://www.google.com/maps/place/17RLL2852287515,2150,WHISPERING PINES MOBILE HOME PARK,NV,2019-04-14T00:00:00.000Z,2019-04-16T00:00:00.000Z
-86.62392898,30.44065043,2151,PRMY003409,7733,WHISPERING PINES TRAILER COURT,665 DENTON BLVD   NW,FORT WALTON BEACH,32547,OKALOOSA,MOBILE HOME PARK,PRIVATE,PRIVATE,10,9/26/1994,APPROVED, ,DE36626, ,GEOPLAN,DBPR,"BUSINESS ANALYST 2018, LOCATOR: POINTADDRESS, SCORE: 100, [665 DENTON BLVD NW, FORT WALTON BEACH, FLORIDA, 32547]",30.44065043,-86.62392898,16REU3611067675,https://www.google.com/maps/place/16REU3611067675,2151,WHISPERING PINES TRAILER COURT,NV,2019-04-14T00:00:00.000Z,2019-04-16T00:00:00.000Z
-81.48615319,27.47824687,2152,PRMZ000711,8464,WHISPERING PINES VILLAGE,2323 BRUNN'S RD,SEBRING,33872,HIGHLANDS,MOBILE HOME PARK,PRIVATE,PRIVATE,71,12/3/1987,APPROVED, ,DE42065, ,GEOPLAN,DBPR,"BUSINESS ANALYST 2018, LOCATOR: STREETADDRESS, SCORE: 98.32, [2323 BRUNNS RD, SEBRING, FLORIDA, 33872]",27.47824687,-81.48615319,17RML5197239501,https://www.google.com/maps/place/17RML5197239501,2152,WHISPERING PINES VILLAGE,NV,2019-04-14T00:00:00.000Z,2019-04-16T00:00:00.000Z
-81.30943672,29.10202563,2153,PRMZ000965,8686,WHISPERWOOD MANUFACTURED HOME PARK,3070 WHISPER BLVD,DELAND,32724,VOLUSIA,MOBILE HOME PARK,PRIVATE,PRIVATE,396,11/13/1987,APPROVED, ,DE00016557,ATTN: ANTHONY LOMBARDO,GEOPLAN,DBPR,"BUSINESS ANALYST 2018, LOCATOR: POINTADDRESS, SCORE: 100, [3070 WHISPER BLVD, DELAND, FLORIDA, 32724]",29.10202563,-81.30943672,17RMN6989019329,https://www.google.com/maps/place/17RMN6989019329,2153,WHISPERWOOD MANUFACTURED HOME PARK,NV,2019-04-14T00:00:00.000Z,2019-04-16T00:00:00.000Z
-80.93403229,29.04232932,2154,PRMZ001317,8996,WHITE BIRD MOBILE HOME PARK,1100 N DIXIE FWY,NEW SMYRNA BEACH,32168,VOLUSIA,MOBILE HOME PARK,PRIVATE,PRIVATE,49,10/14/1985,APPROVED, ,DE00023047, ,GEOPLAN,DBPR,"BUSINESS ANALYST 2018, LOCATOR: POINTADDRESS, SCORE: 100, [1100 N DIXIE FWY, NEW SMYRNA BEACH, FLORIDA, 32168]",29.04232932,-80.93403229,17RNN0642312677,https://www.google.com/maps/place/17RNN0642312677,2154,WHITE BIRD MOBILE HOME PARK,NV,2019-04-14T00:00:00.000Z,2019-04-16T00:00:00.000Z
-82.18751019,29.15815307,2155,PRMZ001324,9001,WHITE OAKS MOBILE HOME PARK,3920 SW 30TH ST,OCALA,34474,MARION,MOBILE HOME PARK,PRIVATE,PRIVATE,132,1/7/1986,APPROVED, ,DE00017142, ,GEOPLAN,DBPR,"BUSINESS ANALYST 2018, LOCATOR: POINTADDRESS, SCORE: 100, [3920 SW 30TH ST, OCALA, FLORIDA, 34474]",29.15815307,-82.18751019,17RLN8450926091,https://www.google.com/maps/place/17RLN8450926091,2155,WHITE OAKS MOBILE HOME PARK,NV,2019-04-14T00:00:00.000Z,2019-04-16T00:00:00.000Z
-82.37880924,29.7337111,2156,PRMZ001274,8957,WHITNEY MOBILE HOME PARK,8401 NW 13TH ST,GAINESVILLE,32653,ALACHUA,MOBILE HOME PARK,PRIVATE,PRIVATE,206,4/25/1985,APPROVED, ,DE44667, ,GEOPLAN,DBPR,"BUSINESS ANALYST 2018, LOCATOR: POINTADDRESS, SCORE: 100, [8401 NW 13TH ST, GAINESVILLE, FLORIDA, 32653]",29.73371111,-82.37880924,17RLN6665790075,https://www.google.com/maps/place/17RLN6665790075,2156,WHITNEY MOBILE HOME PARK,NV,2019-04-14T00:00:00.000Z,2019-04-16T00:00:00.000Z
-82.33521595,28.03192348,2157,PRMY002741,7499,WIGWAM MOBILE HOME PARK/RVP,9102 WILLIAMS RD,SEFFNER,33584,HILLSBOROUGH,MOBILE HOME PARK,PRIVATE,PRIVATE,11,12/31/1984,APPROVED,DELINQUENT,DE00016164, ,GEOPLAN,DBPR,"BUSINESS ANALYST 2018, LOCATOR: POINTADDRESS, SCORE: 100, [9102 WILLIAMS RD, SEFFNER, FLORIDA, 33584]",28.03192348,-82.33521595,17RLM6875001458,https://www.google.com/maps/place/17RLM6875001458,2157,WIGWAM MOBILE HOME PARK/RVP,NV,2019-04-14T00:00:00.000Z,2019-04-16T00:00:00.000Z
-82.04286046,28.84996264,2158,PRMZ001501,9152,WILDWOOD,503 SHAWN AVE,WILDWOOD,34785,SUMTER,MOBILE HOME PARK,PRIVATE,PRIVATE,90,12/17/1985,APPROVED, ,DE46300, ,GEOPLAN,DBPR,"BUSINESS ANALYST 2018, LOCATOR: POINTADDRESS, SCORE: 100, [503 SHAWN AVE, WILDWOOD, FLORIDA, 34785]",28.84996264,-82.04286046,17RLM9827691810,https://www.google.com/maps/place/17RLM9827691810,2158,WILDWOOD,NV,2019-04-14T00:00:00.000Z,2019-04-16T00:00:00.000Z
-82.01766745,28.83788422,2159,PR9791,9814,WILDWOOD COUNTRY RESORT,5604 HERITAGE BOULEVARD,WILDWOOD,34785,SUMTER,MOBILE HOME PARK,PRIVATE,PRIVATE,42,12/8/2004,APPROVED, ,DE37532,C/O JONATHAN WOODS ESQ,GEOPLAN,DBPR,"BUSINESS ANALYST 2018, LOCATOR: POINTADDRESS, SCORE: 100, [5604 HERITAGE BLVD, WILDWOOD, FLORIDA, 34785]",28.83788422,-82.01766745,17RMM0072290450,https://www.google.com/maps/place/17RMM0072290450,2159,WILDWOOD COUNTRY RESORT,NV,2019-04-14T00:00:00.000Z,2019-04-16T00:00:00.000Z
-82.57554201,27.42759075,2160,PRMZ001275,8958,WILHELM'S MOBILE HOME PARK,6330 14TH ST W,BRADENTON,34207,MANATEE,MOBILE HOME PARK,PRIVATE,PRIVATE,90,5/23/1986,APPROVED, ,DE00017812,C/O RONALD RASHINSKI,GEOPLAN,DBPR,"BUSINESS ANALYST 2018, LOCATOR: POINTADDRESS, SCORE: 100, [6330 14TH ST W, BRADENTON, FLORIDA, 34207]",27.42759075,-82.57554201,17RLL4426734783,https://www.google.com/maps/place/17RLL4426734783,2160,WILHELM'S MOBILE HOME PARK,NV,2019-04-14T00:00:00.000Z,2019-04-16T00:00:00.000Z
-86.63295721,30.44292322,2161,PRMY003005,7616,WILLIAMS COURT,916 WILLIAMS CT,FORT WALTON BEACH,32547,OKALOOSA,MOBILE HOME PARK,PRIVATE,PRIVATE,2,12/31/1984,APPROVED,DELINQUENT,DE46354,ATTN: JIMMIE C. AND MABLE J. WHITFIELD,GEOPLAN,DBPR,"BUSINESS ANALYST 2018, LOCATOR: POINTADDRESS, SCORE: 100, [916 WILLIAMS CT, FORT WALTON BEACH, FLORIDA, 32547]",30.44292322,-86.63295721,16REU3524267924,https://www.google.com/maps/place/16REU3524267924,2161,WILLIAMS COURT,NV,2019-04-14T00:00:00.000Z,2019-04-16T00:00:00.000Z
-84.29545835,30.37040371,2162,PRMY002764,7515,WILLIAMS M H P,5220 CRAWFORDVILLE RD.,TALLAHASSEE,32310,LEON,MOBILE HOME PARK,PRIVATE,PRIVATE,13,10/23/1984,APPROVED, ,DE45453, ,GEOPLAN,DBPR,"BUSINESS ANALYST 2018, LOCATOR: POINTADDRESS, SCORE: 92.08, [5220 CRAWFORDVILLE RD, TALLAHASSEE, FLORIDA, 32305]",30.37040372,-84.29545835,16RGU5992062933,https://www.google.com/maps/place/16RGU5992062933,2162,WILLIAMS M H P,NV,2019-04-14T00:00:00.000Z,2019-04-16T00:00:00.000Z
-85.62715056,30.2856834,2163,PRMY002043,7239,WILLOW WOOD MHP,2522 HWY 2321,PANAMA CITY,32409,BAY,MOBILE HOME PARK,PRIVATE,PRIVATE,25,9/16/1985,APPROVED, ,DE00017644, ,GEOPLAN,DBPR,"BUSINESS ANALYST 2018, LOCATOR: POINTADDRESS, SCORE: 92.88, [2522 HIGHWAY 2321, PANAMA CITY, FLORIDA, 32409]",30.2856834,-85.62715056,16RFU3203451240,https://www.google.com/maps/place/16RFU3203451240,2163,WILLOW WOOD MHP,NV,2019-04-14T00:00:00.000Z,2019-04-16T00:00:00.000Z
-82.45939191,28.0611807,2164,PRMZ003052,9670,WINDING CREEK MOBILE HOME PARK,12420 N FLORIDA AVE,TAMPA,33612,HILLSBOROUGH,MOBILE HOME PARK,PRIVATE,PRIVATE,77,10/10/1988,APPROVED, ,DE45719, ,GEOPLAN,DBPR,"BUSINESS ANALYST 2018, LOCATOR: POINTADDRESS, SCORE: 100, [12420 N FLORIDA AVE, TAMPA, FLORIDA, 33612]",28.06118071,-82.45939191,17RLM5658104839,https://www.google.com/maps/place/17RLM5658104839,2164,WINDING CREEK MOBILE HOME PARK,NV,2019-04-14T00:00:00.000Z,2019-04-16T00:00:00.000Z
-81.73832692,26.14712889,2165,PRMZ000898,8627,WINDJAMMER VILLAGE OF NAPLES INC,220 OCEAN BLVD,NAPLES,34104,COLLIER,MOBILE HOME PARK,PRIVATE,PRIVATE,5,10/23/1985,APPROVED, ,DE00019229, ,GEOPLAN,DBPR,"BUSINESS ANALYST 2018, LOCATOR: STREETADDRESS, SCORE: 98.08, [220 OCEANS BLVD, NAPLES, FLORIDA, 34104]",26.14712889,-81.73832692,17RMJ2620192187,https://www.google.com/maps/place/17RMJ2620192187,2165,WINDJAMMER VILLAGE OF NAPLES INC,NV,2019-04-14T00:00:00.000Z,2019-04-16T00:00:00.000Z
-80.5954902,24.94908445,2166,PRMY002541,7399,WINDLEY KEY TP,84961 OLD HIGHWAY (BOX 42),ISLAMORADA,33036,MONROE,MOBILE HOME PARK,PRIVATE,PRIVATE,18,5/12/1987,APPROVED, ,DE41514, ,GEOPLAN,DBPR,"BUSINESS ANALYST 2018, LOCATOR: POINTADDRESS, SCORE: 100, [84961 OLD HWY, ISLAMORADA, FLORIDA, 33036]",24.94908445,-80.5954902,17RNH4083659371,https://www.google.com/maps/place/17RNH4083659371,2166,WINDLEY KEY TP,NV,2019-04-14T00:00:00.000Z,2019-04-16T00:00:00.000Z
-82.49412396,27.44627356,2167,PRMZ001591,9235,WINDMILL MANOR,5320 53RD AVE E,BRADENTON,34203,MANATEE,MOBILE HOME PARK,PRIVATE,PRIVATE,292,6/20/1985,APPROVED, ,DE00022454,C/O BUSINESS LICENSES LLC,GEOPLAN,DBPR,"BUSINESS ANALYST 2018, LOCATOR: STREETADDRESS, SCORE: 100, [5320 53RD AVE E, BRADENTON, FLORIDA, 34203]",27.44627356,-82.49412396,17RLL5234036753,https://www.google.com/maps/place/17RLL5234036753,2167,WINDMILL MANOR,NV,2019-04-14T00:00:00.000Z,2019-04-16T00:00:00.000Z
-81.67573483,28.33009614,2168,PRMZ003682,9800,WINDMILL VILLAGE,427 WINDMILL BLVD,DAVENPORT,33897,POLK,MOBILE HOME PARK,PRIVATE,PRIVATE,509,8/6/2002,APPROVED, ,DE44398, ,GEOPLAN,DBPR,"BUSINESS ANALYST 2018, LOCATOR: POINTADDRESS, SCORE: 100, [427 WINDMILL BLVD, DAVENPORT, FLORIDA, 33897]",28.33009614,-81.67573483,17RMM3376333955,https://www.google.com/maps/place/17RMM3376333955,2168,WINDMILL VILLAGE,NV,2019-04-14T00:00:00.000Z,2019-04-16T00:00:00.000Z
-81.90060125,26.69896433,2169,PRMZ000826,8562,WINDMILL VILLAGE,16131 N CLEVELAND AVE,NORTH FORT MYERS,33903,LEE,MOBILE HOME PARK,PRIVATE,PRIVATE,491,8/27/1985,APPROVED, ,DE40867,C/O BUSINESS LICENSES LLC,GEOPLAN,DBPR,"BUSINESS ANALYST 2018, LOCATOR: POINTADDRESS, SCORE: 100, [16131 N CLEVELAND AVE, NORTH FORT MYERS, FLORIDA, 33903]",26.69896433,-81.90060125,17RMK1040853410,https://www.google.com/maps/place/17RMK1040853410,2169,WINDMILL VILLAGE,NV,2019-04-14T00:00:00.000Z,2019-04-16T00:00:00.000Z
-82.51395987,27.37181063,2170,PRMZ001357,9029,WINDS OF ST ARMANDS NORTH,4000 N TUTTLE AVE,SARASOTA,34234,SARASOTA,MOBILE HOME PARK,PRIVATE,PRIVATE,471,9/24/1985,APPROVED, ,DE40873,C/O BUSINESS LICENSES LLC,GEOPLAN,DBPR,"BUSINESS ANALYST 2018, LOCATOR: POINTADDRESS, SCORE: 100, [4000 N TUTTLE AVE, SARASOTA, FLORIDA, 34234]",27.37181063,-82.51395987,17RLL5027928527,https://www.google.com/maps/place/17RLL5027928527,2170,WINDS OF ST ARMANDS NORTH,NV,2019-04-14T00:00:00.000Z,2019-04-16T00:00:00.000Z
-82.51390975,27.36267052,2171,PRMZ001355,9028,WINDS OF ST ARMANDS SOUTH,3000 N TUTTLE AVE,SARASOTA,34234,SARASOTA,MOBILE HOME PARK,PRIVATE,PRIVATE,306,8/27/1985,APPROVED, ,DE40874,C/O BUSINESS LICENSES LLC,GEOPLAN,DBPR,"BUSINESS ANALYST 2018, LOCATOR: POINTADDRESS, SCORE: 100, [3000 N TUTTLE AVE, SARASOTA, FLORIDA, 34234]",27.36267052,-82.51390975,17RLL5027227515,https://www.google.com/maps/place/17RLL5027227515,2171,WINDS OF ST ARMANDS SOUTH,NV,2019-04-14T00:00:00.000Z,2019-04-16T00:00:00.000Z
-80.32955969,27.40647011,2172,PRMZ001353,9026,WINDSONG MOBILE VILLAGE,3200 S 7TH ST,FORT PIERCE,34982,ST LUCIE,MOBILE HOME PARK,PRIVATE,PRIVATE,152,10/29/1985,APPROVED,DELINQUENT,DE00019859,C/O TODD ROSENZWEIG,GEOPLAN,DBPR,"BUSINESS ANALYST 2018, LOCATOR: POINTADDRESS, SCORE: 100, [3200 S 7TH ST, FORT PIERCE, FLORIDA, 34982]",27.40647011,-80.32955969,17RNL6627831635,https://www.google.com/maps/place/17RNL6627831635,2172,WINDSONG MOBILE VILLAGE,NV,2019-04-14T00:00:00.000Z,2019-04-16T00:00:00.000Z
-81.46734905,28.25599267,2173,PRMZ001339,9014,WINDSOR MH VILLAGE,4630 S ORANGE BLOSSOM TR,KISSIMMEE,34746,OSCEOLA,MOBILE HOME PARK,PRIVATE,PRIVATE,92,9/20/1985,APPROVED, ,DE44345,ATTN: ENON WINKLER,GEOPLAN,DBPR,"BUSINESS ANALYST 2018, LOCATOR: POINTADDRESS, SCORE: 100, [4630 S ORANGE BLOSSOM TRL, KISSIMMEE, FLORIDA, 34746]",28.25599267,-81.46734905,17RMM5415825649,https://www.google.com/maps/place/17RMM5415825649,2173,WINDSOR MH VILLAGE,NV,2019-04-14T00:00:00.000Z,2019-04-16T00:00:00.000Z
-82.09675111,28.02461778,2174,PRMZ001330,9006,WINDWARD GARDENS MOBILE HOME PARK,301 N WILDER RD,PLANT CITY,33566,HILLSBOROUGH,MOBILE HOME PARK,PRIVATE,PRIVATE,99,9/17/1985,APPROVED, ,DE46268, ,GEOPLAN,DBPR,"BUSINESS ANALYST 2018, LOCATOR: STREETADDRESS, SCORE: 92.08, [301 N WILDER RD, PLANT CITY, FLORIDA, 33563]",28.02461778,-82.09675111,17RLM9218500414,https://www.google.com/maps/place/17RLM9218500414,2174,WINDWARD GARDENS MOBILE HOME PARK,NV,2019-04-14T00:00:00.000Z,2019-04-16T00:00:00.000Z
-82.25641072,28.04710339,2175,PRMZ000897,8626,WINDWARD KNOLL MHP,12415 THONOTOSASSA RD,THONOTOSASSA,33592,HILLSBOROUGH,MOBILE HOME PARK,PRIVATE,PRIVATE,140,1/31/1986,APPROVED, ,DE45166, ,GEOPLAN,DBPR,"BUSINESS ANALYST 2018, LOCATOR: POINTADDRESS, SCORE: 100, [12415 THONOTOSASSA RD, THONOTOSASSA, FLORIDA, 33592]",28.04710339,-82.25641072,17RLM7651503057,https://www.google.com/maps/place/17RLM7651503057,2175,WINDWARD KNOLL MHP,NV,2019-04-14T00:00:00.000Z,2019-04-16T00:00:00.000Z
-82.61359435,28.47867372,2176,PRMZ000523,8300,WINDWARD VILLAGE MOBILE HOME PARK,6291 WINDWARD BLVD,SPRING HILL,34607,HERNANDO,MOBILE HOME PARK,PRIVATE,PRIVATE,255,4/20/1987,APPROVED, ,DE45190, ,GEOPLAN,DBPR,"BUSINESS ANALYST 2018, LOCATOR: POINTADDRESS, SCORE: 100, [6291 WINDWARD BLVD, SPRING HILL, FLORIDA, 34607]",28.47867372,-82.61359436,17RLM4204251290,https://www.google.com/maps/place/17RLM4204251290,2176,WINDWARD VILLAGE MOBILE HOME PARK,NV,2019-04-14T00:00:00.000Z,2019-04-16T00:00:00.000Z
-81.78238932,27.98000012,2177,PRMZ001823,9434,WINTER HAVEN MANUFACTURED HOME COMMUNITY,50 CHARLOTTE DR,WINTER HAVEN,33880,POLK,MOBILE HOME PARK,PRIVATE,PRIVATE,238,6/6/1985,APPROVED, ,DE40120, ,GEOPLAN,DBPR,"BUSINESS ANALYST 2018, LOCATOR: POINTADDRESS, SCORE: 100, [50 CHARLOTTE DR, WINTER HAVEN, FLORIDA, 33880]",27.98000012,-81.78238932,17RML2305895233,https://www.google.com/maps/place/17RML2305895233,2177,WINTER HAVEN MANUFACTURED HOME COMMUNITY,NV,2019-04-14T00:00:00.000Z,2019-04-16T00:00:00.000Z
-81.78411629,27.97150141,2178,PRMZ000280,8092,WINTER HAVEN OAKS,5248 SPIRIT LAKE RD,WINTER HAVEN,33880,POLK,MOBILE HOME PARK,PRIVATE,PRIVATE,344,12/22/1986,APPROVED, ,DE41532, ,GEOPLAN,DBPR,"BUSINESS ANALYST 2018, LOCATOR: STREETADDRESS, SCORE: 100, [5248 SPIRIT LAKE RD, WINTER HAVEN, FLORIDA, 33880]",27.97150141,-81.78411629,17RML2288294293,https://www.google.com/maps/place/17RML2288294293,2178,WINTER HAVEN OAKS,NV,2019-04-14T00:00:00.000Z,2019-04-16T00:00:00.000Z
-82.18775146,28.22905977,2179,PRMZ001341,9016,WINTERS MOBILE HOME PARK,38022 WINTER DR,ZEPHYRHILLS,33541,PASCO,MOBILE HOME PARK,PRIVATE,PRIVATE,264,6/25/1985,APPROVED, ,DE00012310, ,GEOPLAN,DBPR,"BUSINESS ANALYST 2018, LOCATOR: STREETADDRESS, SCORE: 92.08, [38022 WINTER DR, ZEPHYRHILLS, FLORIDA, 33542]",28.22905977,-82.18775146,17RLM8346123148,https://www.google.com/maps/place/17RLM8346123148,2179,WINTERS MOBILE HOME PARK,NV,2019-04-14T00:00:00.000Z,2019-04-16T00:00:00.000Z
-82.50636992,27.87785157,2180,PRMZ001332,9008,WINWARD LAKES MHP,6220 S DALE MABRY HWY,TAMPA,33611,HILLSBOROUGH,MOBILE HOME PARK,PRIVATE,PRIVATE,213,10/1/1985,APPROVED, ,DE45167, ,GEOPLAN,DBPR,"BUSINESS ANALYST 2018, LOCATOR: POINTADDRESS, SCORE: 100, [6220 S DALE MABRY HWY, TAMPA, FLORIDA, 33611]",27.87785158,-82.50636991,17RLL5171484583,https://www.google.com/maps/place/17RLL5171484583,2180,WINWARD LAKES MHP,NV,2019-04-14T00:00:00.000Z,2019-04-16T00:00:00.000Z
-82.54303877,29.05205104,2181,PRMY003256,7696,WITHLACOOCHEE BACKWATERS MH/RV PARK,19151 SE 135TH CT,DUNNELLON,34431,LEVY,MOBILE HOME PARK,PRIVATE,PRIVATE,25,10/9/1991,APPROVED, ,DE45792, ,GEOPLAN,DBPR,"BUSINESS ANALYST 2018, LOCATOR: POINTADDRESS, SCORE: 100, [19151 SE 135TH CT, DUNNELLON, FLORIDA, 34431]",29.05205104,-82.54303877,17RLN4977414735,https://www.google.com/maps/place/17RLN4977414735,2181,WITHLACOOCHEE BACKWATERS MH/RV PARK,NV,2019-04-14T00:00:00.000Z,2019-04-16T00:00:00.000Z
-82.18896828,28.25418843,2182,PRMZ000899,8628,WOOD DALE MOBILE HOME PARK,37945 BENTLEY DR,ZEPHYRHILLS,33542,PASCO,MOBILE HOME PARK,PRIVATE,PRIVATE,123,9/18/1985,APPROVED, ,DE00011887,ATTN: STEPHEN E CORSETTI,GEOPLAN,DBPR,"BUSINESS ANALYST 2018, LOCATOR: POINTADDRESS, SCORE: 100, [37945 BENTLEY DR, ZEPHYRHILLS, FLORIDA, 33542]",28.25418843,-82.18896828,17RLM8336825934,https://www.google.com/maps/place/17RLM8336825934,2182,WOOD DALE MOBILE HOME PARK,NV,2019-04-14T00:00:00.000Z,2019-04-16T00:00:00.000Z
-81.99216441,28.0411883,2183,PRMZ000835,8570,WOODALL'S VILLAGE,2121 NEW TAMPA HWY 3F,LAKELAND,33815,POLK,MOBILE HOME PARK,PRIVATE,PRIVATE,235,6/4/1985,APPROVED, ,DE00011800, ,GEOPLAN,DBPR,"BUSINESS ANALYST 2018, LOCATOR: POINTADDRESS, SCORE: 100, [2121 NEW TAMPA HWY, LAKELAND, FLORIDA, 33815]",28.04118831,-81.99216441,17RMM0248202162,https://www.google.com/maps/place/17RMM0248202162,2183,WOODALL'S VILLAGE,NV,2019-04-14T00:00:00.000Z,2019-04-16T00:00:00.000Z
-81.9780498,28.02584289,2184,PRMZ001448,9108,WOODBROOK ESTATES MANUFACTURED HOME COMMUNITY,1510 ARIANA ST,LAKELAND,33803,POLK,MOBILE HOME PARK,PRIVATE,PRIVATE,461,12/27/1984,APPROVED, ,DE00011677,ATTN: RICHARD S WEBB IV ESQ,GEOPLAN,DBPR,"BUSINESS ANALYST 2018, LOCATOR: POINTADDRESS, SCORE: 100, [1510 ARIANA ST, LAKELAND, FLORIDA, 33803]",28.02584289,-81.9780498,17RMM0385600451,https://www.google.com/maps/place/17RMM0385600451,2184,WOODBROOK ESTATES MANUFACTURED HOME COMMUNITY,NV,2019-04-14T00:00:00.000Z,2019-04-16T00:00:00.000Z
-81.48818064,27.4808976,2185,PRMZ000997,8713,WOODHAVEN ESTATES,2103 FIESTA WAY,SEBRING,33872,HIGHLANDS,MOBILE HOME PARK,PRIVATE,PRIVATE,320,12/12/1985,APPROVED, ,DE00015186,C/O DENNIS R. MOSLEY,GEOPLAN,DBPR,"BUSINESS ANALYST 2018, LOCATOR: POINTADDRESS, SCORE: 100, [2103 FIESTA WAY, SEBRING, FLORIDA, 33872]",27.4808976,-81.48818064,17RML5177239796,https://www.google.com/maps/place/17RML5177239796,2185,WOODHAVEN ESTATES,NV,2019-04-14T00:00:00.000Z,2019-04-16T00:00:00.000Z
-81.80911967,30.24783852,2186,PRMZ000201,8024,WOODLAND ESTATES,9359 103RD ST,JACKSONVILLE,32210,DUVAL,MOBILE HOME PARK,PRIVATE,PRIVATE,298,7/30/1985,APPROVED, ,DE45796, ,GEOPLAN,DBPR,"BUSINESS ANALYST 2018, LOCATOR: POINTADDRESS, SCORE: 100, [9359 103RD ST, JACKSONVILLE, FLORIDA, 32210]",30.24783852,-81.80911967,17RMP2215646525,https://www.google.com/maps/place/17RMP2215646525,2186,WOODLAND ESTATES,NV,2019-04-14T00:00:00.000Z,2019-04-16T00:00:00.000Z
-82.4417896,27.70802108,2187,PRMZ002691,9577,WOODLAND ESTATES,602 WOODLAND ESTATES AVE,RUSKIN,33570,HILLSBOROUGH,MOBILE HOME PARK,PRIVATE,PRIVATE,60,2/23/1989,APPROVED, ,DE45943,WOODLAND ESTATES MANAGEMENT LLC / R NASH,GEOPLAN,DBPR,"BUSINESS ANALYST 2018, LOCATOR: STREETADDRESS, SCORE: 100, [602 WOODLAND ESTATES AVE, RUSKIN, FLORIDA, 33570]",27.70802108,-82.4417896,17RLL5785165691,https://www.google.com/maps/place/17RLL5785165691,2187,WOODLAND ESTATES,NV,2019-04-14T00:00:00.000Z,2019-04-16T00:00:00.000Z
-81.62314944,28.08805558,2188,PRMZ001183,8875,WOODLAND LAKES,1901 HWY 17-92 WEST,HAINES CITY,33844,POLK,MOBILE HOME PARK,PRIVATE,PRIVATE,167,12/31/1985,APPROVED, ,DE45042, ,GEOPLAN,DBPR,"BUSINESS ANALYST 2018, LOCATOR: POINTADDRESS, SCORE: 100, [1901 SR-17, HAINES CITY, FLORIDA, 33844]",28.08805558,-81.62314944,17RMM3878007114,https://www.google.com/maps/place/17RMM3878007114,2188,WOODLAND LAKES,NV,2019-04-14T00:00:00.000Z,2019-04-16T00:00:00.000Z
-81.83510991,28.64838359,2189,PRMZ001374,9044,WOODLANDS AT CHURCH LAKE,1124 HERITAGE DR,GROVELAND,34736,LAKE,MOBILE HOME PARK,PRIVATE,PRIVATE,292,3/11/1986,APPROVED, ,DE36436,ATTN:  SUN COMMUNITIES INC,GEOPLAN,DBPR,"BUSINESS ANALYST 2018, LOCATOR: POINTADDRESS, SCORE: 100, [1124 HERITAGE DR, GROVELAND, FLORIDA, 34736]",28.64838359,-81.83510991,17RMM1838569316,https://www.google.com/maps/place/17RMM1838569316,2189,WOODLANDS AT CHURCH LAKE,NV,2019-04-14T00:00:00.000Z,2019-04-16T00:00:00.000Z
-80.38496101,27.60878345,2190,PRMZ000799,8540,WOODLAWN MANOR,555 4TH ST,VERO BEACH,32962,INDIAN RIVER,MOBILE HOME PARK,PRIVATE,PRIVATE,96,10/17/1985,APPROVED, ,DE44452, ,GEOPLAN,DBPR,"BUSINESS ANALYST 2018, LOCATOR: POINTADDRESS, SCORE: 100, [555 4TH ST, VERO BEACH, FLORIDA, 32962]",27.60878345,-80.38496101,17RNL6069054017,https://www.google.com/maps/place/17RNL6069054017,2190,WOODLAWN MANOR,NV,2019-04-14T00:00:00.000Z,2019-04-16T00:00:00.000Z
-87.25941293,30.50564525,2191,PRMZ001666,9303,WOODRIDGE MOBILE VILLAGE,7722 N PALAFOX ST,PENSACOLA,32534,ESCAMBIA,MOBILE HOME PARK,PRIVATE,PRIVATE,65,9/11/1985,APPROVED, ,DE46000,ATTEN: RICHARD O'BRIEN,GEOPLAN,DBPR,"BUSINESS ANALYST 2018, LOCATOR: POINTADDRESS, SCORE: 100, [7722 N PALAFOX ST, PENSACOLA, FLORIDA, 32534]",30.50564525,-87.25941293,16RDU7510874846,https://www.google.com/maps/place/16RDU7510874846,2191,WOODRIDGE MOBILE VILLAGE,NV,2019-04-14T00:00:00.000Z,2019-04-16T00:00:00.000Z
-80.31163379,25.84596382,2192,PRMZ001361,9033,"WYNKEN, BLYNKEN & NOD MOBILE HOME PARK",2775 W OKEECHOBEE RD,HIALEAH,33010,DADE,MOBILE HOME PARK,PRIVATE,PRIVATE,184,4/29/1985,APPROVED, ,DE46049, ,GEOPLAN,DBPR,"BUSINESS ANALYST 2018, LOCATOR: POINTADDRESS, SCORE: 100, [2775 W OKEECHOBEE RD, HIALEAH, FLORIDA, 33010]",25.84596382,-80.31163379,17RNJ6898158806,https://www.google.com/maps/place/17RNJ6898158806,2192,"WYNKEN, BLYNKEN & NOD MOBILE HOME PARK",NV,2019-04-14T00:00:00.000Z,2019-04-16T00:00:00.000Z
-82.24089164,28.72263042,2193,PRMZ002210,9541,WYNNHAVEN RIVERSIDE MOBILE HOME AND RV PARK,8271 WEST C-48 # 404,BUSHNELL,33513,SUMTER,MOBILE HOME PARK,PRIVATE,PRIVATE,45,3/19/1990,APPROVED, ,DE46088, ,GEOPLAN,DBPR,"BUSINESS ANALYST 2018, LOCATOR: POINTADDRESS, SCORE: 100, [8271 W C 48, BUSHNELL, FLORIDA, 33513]",28.72263042,-82.24089164,17RLM7881177887,https://www.google.com/maps/place/17RLM7881177887,2193,WYNNHAVEN RIVERSIDE MOBILE HOME AND RV PARK,NV,2019-04-14T00:00:00.000Z,2019-04-16T00:00:00.000Z
-82.44875059,27.72067352,2194,PRMZ001611,9252,YOST MANUFACTURED HOME COMMUNITY,1112 W SHELL POINT RD,RUSKIN,33570,HILLSBOROUGH,MOBILE HOME PARK,PRIVATE,PRIVATE,63,9/28/1989,APPROVED, ,DE45390,ATTN:  STEINER & ASSOCIATES,GEOPLAN,DBPR,"BUSINESS ANALYST 2018, LOCATOR: POINTADDRESS, SCORE: 100, [1112 W SHELL POINT RD, RUSKIN, FLORIDA, 33570]",27.72067353,-82.44875059,17RLL5718167101,https://www.google.com/maps/place/17RLL5718167101,2194,YOST MANUFACTURED HOME COMMUNITY,NV,2019-04-14T00:00:00.000Z,2019-04-16T00:00:00.000Z
-82.17735023,28.2464283,2195,PRMZ001253,8937,ZACK'S OAKSIDE MHP INC,38539 CRESCENT AVE,ZEPHYRHILLS,33540,PASCO,MOBILE HOME PARK,PRIVATE,PRIVATE,238,5/6/1985,APPROVED, ,DE44291,WK7@VERIZON.NET,GEOPLAN,DBPR,"BUSINESS ANALYST 2018, LOCATOR: POINTADDRESS, SCORE: 92.08, [38539 CRESCENT AVE, ZEPHYRHILLS, FLORIDA, 33542]",28.2464283,-82.17735024,17RLM8450025063,https://www.google.com/maps/place/17RLM8450025063,2195,ZACK'S OAKSIDE MHP INC,NV,2019-04-14T00:00:00.000Z,2019-04-16T00:00:00.000Z
-81.58321702,28.71322533,2196,PRMZ001337,9013,ZELLWOOD STATION,2126 SPILLMAN DR,ZELLWOOD,32798,ORANGE,MOBILE HOME PARK,PRIVATE,PRIVATE,108,3/11/1986,APPROVED, ,DE00012306, ,GEOPLAN,DBPR,"BUSINESS ANALYST 2018, LOCATOR: STREETADDRESS, SCORE: 100, [2126 SPILLMAN DR, ZELLWOOD, FLORIDA, 32798]",28.71322533,-81.58321702,17RMM4303876353,https://www.google.com/maps/place/17RMM4303876353,2196,ZELLWOOD STATION,NV,2019-04-14T00:00:00.000Z,2019-04-16T00:00:00.000Z
-82.18225946,28.21503116,2197,PRMZ001210,8896,ZEPHYR MOBILE HOME PARK,3950 DIXON ST,ZEPHYRHILLS,33542,PASCO,MOBILE HOME PARK,PRIVATE,PRIVATE,82,12/20/1985,APPROVED, ,DE00014756,C/O SUK CHANG,GEOPLAN,DBPR,"BUSINESS ANALYST 2018, LOCATOR: POINTADDRESS, SCORE: 100, [3950 DIXON ST, ZEPHYRHILLS, FLORIDA, 33542]",28.21503116,-82.18225946,17RLM8398421589,https://www.google.com/maps/place/17RLM8398421589,2197,ZEPHYR MOBILE HOME PARK,NV,2019-04-14T00:00:00.000Z,2019-04-16T00:00:00.000Z
-82.63887128,27.85134034,1001,PRMZ001233,8918,LAMPLIGHT VILLAGE MOBILE HOME PARK,8624 4TH ST N,ST PETERSBURG,33702,PINELLAS,MOBILE HOME PARK,PRIVATE,PRIVATE,112,4/10/1985,APPROVED, ,DE46082, ,GEOPLAN,DBPR,"BUSINESS ANALYST 2018, LOCATOR: POINTADDRESS, SCORE: 100, [8624 4TH ST N, ST PETERSBURG, FLORIDA, 33702]",27.85134035,-82.63887129,17RLL3862981813,https://www.google.com/maps/place/17RLL3862981813,1001,LAMPLIGHT VILLAGE MOBILE HOME PARK,NV,2019-04-14T00:00:00.000Z,2019-04-16T00:00:00.000Z
-81.01746702,29.15003629,1002,PRMZ000632,8395,LAMPLIGHTER MH COMM,3202 S NOVA RD,PORT ORANGE,32119,VOLUSIA,MOBILE HOME PARK,PRIVATE,PRIVATE,260,3/18/1986,APPROVED, ,DE45021,C/O SUN COMMUNITIES INC,GEOPLAN,DBPR,"BUSINESS ANALYST 2018, LOCATOR: POINTADDRESS, SCORE: 92.08, [3202 S NOVA RD, PORT ORANGE, FLORIDA, 32129]",29.15003629,-81.01746702,17RMN9830124609,https://www.google.com/maps/place/17RMN9830124609,1002,LAMPLIGHTER MH COMM,NV,2019-04-14T00:00:00.000Z,2019-04-16T00:00:00.000Z
-82.26280017,29.67365815,1003,PRMZ000592,8362,LAMPLIGHTER MOBILE HOME PARK,5200 NE 39TH AVE,GAINESVILLE,32609,ALACHUA,MOBILE HOME PARK,PRIVATE,PRIVATE,273,9/18/1985,APPROVED, ,DE46271, ,GEOPLAN,DBPR,"BUSINESS ANALYST 2018, LOCATOR: POINTADDRESS, SCORE: 100, [5200 NE 39TH AVE, GAINESVILLE, FLORIDA, 32609]",29.67365815,-82.26280017,17RLN7780483292,https://www.google.com/maps/place/17RLN7780483292,1003,LAMPLIGHTER MOBILE HOME PARK,NV,2019-04-14T00:00:00.000Z,2019-04-16T00:00:00.000Z
-82.35961057,28.05046828,1004,PRMZ000578,8349,LAMPLIGHTER ON THE RIVER MHP,8406 CINDY WAY,TAMPA,33637,HILLSBOROUGH,MOBILE HOME PARK,PRIVATE,PRIVATE,423,10/1/1985,APPROVED, ,DE45448, ,GEOPLAN,DBPR,"BUSINESS ANALYST 2018, LOCATOR: POINTADDRESS, SCORE: 100, [8406 CINDY WAY, TAMPA, FLORIDA, 33637]",28.05046828,-82.35961057,17RLM6637503539,https://www.google.com/maps/place/17RLM6637503539,1004,LAMPLIGHTER ON THE RIVER MHP,NV,2019-04-14T00:00:00.000Z,2019-04-16T00:00:00.000Z
-80.70035099,28.11170022,1005,PRMZ000569,8342,LAMPLIGHTER VILLAGE,500 LANTERN BLVD,MELBOURNE,32934,BREVARD,MOBILE HOME PARK,PRIVATE,PRIVATE,442,5/19/1986,APPROVED, ,DE00016631, ,GEOPLAN,DBPR,"BUSINESS ANALYST 2018, LOCATOR: STREETADDRESS, SCORE: 100, [500 LANTERN BLVD, MELBOURNE, FLORIDA, 32934]",28.11170022,-80.70035099,17RNM2943209612,https://www.google.com/maps/place/17RNM2943209612,1005,LAMPLIGHTER VILLAGE,NV,2019-04-14T00:00:00.000Z,2019-04-16T00:00:00.000Z
-80.70035099,28.11170022,1006,PRMZ000630,8393,LAMPLIGHTER VILLAGE II,500 LANTERN BLVD,MELBOURNE,32934,BREVARD,MOBILE HOME PARK,PRIVATE,PRIVATE,197,5/19/1986,APPROVED, ,DE00016631, ,GEOPLAN,DBPR,"BUSINESS ANALYST 2018, LOCATOR: STREETADDRESS, SCORE: 100, [500 LANTERN BLVD, MELBOURNE, FLORIDA, 32934]",28.11170022,-80.70035099,17RNM2943209612,https://www.google.com/maps/place/17RNM2943209612,1006,LAMPLIGHTER VILLAGE II,NV,2019-04-14T00:00:00.000Z,2019-04-16T00:00:00.000Z
-81.27360005,28.94863323,1007,PRMZ000633,8396,LAND O' LAKES MOBILE HOME PARK,1800 E GRAVES AVE,ORANGE CITY,32763,VOLUSIA,MOBILE HOME PARK,PRIVATE,PRIVATE,178,9/6/1985,APPROVED, ,DE36288,"ATTN: STANLEY R GARRIS, MANAGING PARTNER",GEOPLAN,DBPR,"BUSINESS ANALYST 2018, LOCATOR: POINTADDRESS, SCORE: 100, [1800 E GRAVES AVE, ORANGE CITY, FLORIDA, 32763]",28.94863323,-81.27360005,17RMN7333802325,https://www.google.com/maps/place/17RMN7333802325,1007,LAND O' LAKES MOBILE HOME PARK,NV,2019-04-14T00:00:00.000Z,2019-04-16T00:00:00.000Z
-82.02317926,28.11183014,1008,PRMZ002904,9639,LAND SOUTH COUNTRY VILLAS,5435 LEWELLYN RD,LAKELAND,33810,POLK,MOBILE HOME PARK,PRIVATE,PRIVATE,45,10/25/1985,APPROVED, ,DE45394,ATTN: MEGHAN WEST,GEOPLAN,DBPR,"BUSINESS ANALYST 2018, LOCATOR: POINTADDRESS, SCORE: 100, [5435 LEWELLYN RD, LAKELAND, FLORIDA, 33810]",28.11183014,-82.02317926,17RLM9949910013,https://www.google.com/maps/place/17RLM9949910013,1008,LAND SOUTH COUNTRY VILLAS,NV,2019-04-14T00:00:00.000Z,2019-04-16T00:00:00.000Z
-81.67207155,28.91807527,1009,PRMY002591,7426,LAND'S MOBILE HOME PARK,30 WAFFORD STREET,UMATILLA,32784,LAKE,MOBILE HOME PARK,PRIVATE,PRIVATE,18,11/27/1984,APPROVED, ,DE00016170, ,GEOPLAN,DBPR,"BUSINESS ANALYST 2018, LOCATOR: POINTADDRESS, SCORE: 100, [30 WAFFORD ST, UMATILLA, FLORIDA, 32784]",28.91807527,-81.67207155,17RMM3448899095,https://www.google.com/maps/place/17RMM3448899095,1009,LAND'S MOBILE HOME PARK,NV,2019-04-14T00:00:00.000Z,2019-04-16T00:00:00.000Z
-85.58269943,30.15614948,1010,PRMZ003018,9662,LANDEVER MOBILE HOME PARK,420 N KIMBREL AVE,CALLAWAY,32404,BAY,MOBILE HOME PARK,PRIVATE,PRIVATE,2,4/15/1988,APPROVED, ,DE00018250,C/O HUGH V. ROCHE,GEOPLAN,DBPR,"BUSINESS ANALYST 2018, LOCATOR: POINTADDRESS, SCORE: 100, [420 N KIMBREL AVE, CALLAWAY, FLORIDA, 32404]",30.15614948,-85.58269943,16RFU3648836936,https://www.google.com/maps/place/16RFU3648836936,1010,LANDEVER MOBILE HOME PARK,NV,2019-04-14T00:00:00.000Z,2019-04-16T00:00:00.000Z
